stop_id,stop_code,stop_name,stop_desc,stop_lat,stop_lon,zone_id,stop_url,location_type,parent_station,stop_timezone,wheelchair_boarding
50101,14,Externato Champagnat,,38.77779750,-9.12706800,,,0,,,
50100,13,Externato Champagnat,,38.77785050,-9.12684000,,,0,,,
50103,30,Alto Chapeleiro,,38.78766950,-9.16358300,,,0,,,
14723,20,Av. Dr. Arlindo Vicente,,38.75362350,-9.12593400,,,0,,,
50105,3,Chapeleiro 2,,38.79227250,-9.15756100,,,0,,,
50104,2,Chapeleiro 1,,38.79043450,-9.15971200,,,0,,,
14720,29,Colégio Valsassina,,38.75537450,-9.12637600,,,0,,,
50107,29,Chapeleiro 1,,38.79051050,-9.15977900,,,0,,,
14727,22,B. Flamenga,,38.75227550,-9.12320500,,,0,,,
50106,28,Chapeleiro 2,,38.79241250,-9.15737200,,,0,,,
14726,26,Pq. Bela Vista,,38.75106250,-9.12455000,,,0,,,
50109,31,Av. Pe. Manuel Nóbrega,,38.74298150,-9.13353500,,,0,,,
14725,17,Pq. Bela Vista,,38.75103960,-9.12480000,,,0,,,
50108,1,Estação Roma-Areeiro,,38.74557550,-9.13539000,,,0,,,
14724,20,Av. Dr. Arlindo Vicente,,38.75369850,-9.12602700,,,0,,,
14729,14,Av. Avelino Teixeira Mota (CERCI),,38.75209150,-9.12130800,,,0,,,
14728,18,B. Flamenga,,38.75265750,-9.12299700,,,0,,,
2008,4,Campo Grande,,38.75212150,-9.15124400,,,0,,,
6503,27,Jardim Constantino,,38.73084050,-9.13770500,,,0,,,
50404,38,Outurela (Pav. Carlos Queiroz),,38.72377500,-9.22598000,,,0,,,
50405,2,Outurela (Pav. Carlos Queiroz),,38.72365250,-9.22600100,,,0,,,
50406,11,Cruz Quebrada (Fac. Motricidade Humana),,38.70535750,-9.25234000,,,0,,,
50407,12,Cruz Quebrada (Clube Ténis Jamor),,38.70774350,-9.25151300,,,0,,,
50400,1,Cruz da Pedra,,38.72307950,-9.11554300,,,0,,,
50403,23,Colégio Militar (Metro),,38.75290350,-9.18963400,,,0,,,
7409,12,Lg. Frei Heitor Pinto,,38.75462250,-9.13853100,,,0,,,
50408,1,Olaias,,38.73899650,-9.12326500,,,0,,,
50409,40,R. João Nascimento Costa,,38.73729550,-9.12547400,,,0,,,
3008,17,R. Gen. Fernando Tamagnini,,38.74531150,-9.22199400,,,0,,,
3018,5,Estação Damaia,,38.74812680,-9.21517240,,,0,,,
7503,31,Av. Mar. Gomes Costa (Qta. Teresinhas),,38.76117550,-9.12176700,,,0,,,
7513,17,Av. Brasil (Rot. Relógio),,38.76224550,-9.13025200,,,0,,,
50303,12,Parque Nações Norte,,38.79377050,-9.09754000,,,0,,,
50302,11,Via Oriente,,38.79164250,-9.09920100,,,0,,,
50300,9,Passeio Tejo,,38.78596750,-9.09647500,,,0,,,
50306,7,Passeio Tejo,,38.78584650,-9.09679400,,,0,,,
50305,6,R. Chen He,,38.78876750,-9.09844200,,,0,,,
50304,5,Via Oriente,,38.79207550,-9.09936600,,,0,,,
14120,25,B. Padre Cruz,,38.76924600,-9.18922400,,,0,,,
50309,1,Amoreiras (C. Comercial),,38.72271850,-9.16111400,,,0,,,
50602,18,R. Vale Sto. António / R. Sta. Engrácia,,38.71840800,-9.12300040,,,0,,,
50603,31,R. Instituto Industrial,,38.70834930,-9.15052170,,,0,,,
1409,5,Av. Marquês Tomar,,38.73654550,-9.15058200,,,0,,,
50505,6,R. Particular Arco Carvalhão,,38.72443650,-9.16688300,,,0,,,
50504,7,R. Garcia,,38.72381750,-9.16654300,,,0,,,
1503,13,Pç. Espanha / Av. Berna,,38.73873450,-9.15403500,,,0,,,
50507,17,B. Bela Flor,,38.72459660,-9.16964800,,,0,,,
50506,15,R. D. António Luis Sousa,,38.72511250,-9.16766300,,,0,,,
50501,1,R. Bela Flor,,38.72352550,-9.17093600,,,0,,,
50500,8,R. Gen. Taborda,,38.72872690,-9.16321870,,,0,,,
50503,4,R. D. António Luis Sousa,,38.72531550,-9.16775500,,,0,,,
50502,2,B. Bela Flor,,38.72443860,-9.16918600,,,0,,,
50509,9,R. Leandro Braga,,38.72989550,-9.16439400,,,0,,,
50508,3,Cç. Quintinha,,38.72583630,-9.16893420,,,0,,,
2409,14,Parque Nações Sul,,38.75530600,-9.09685220,,,0,,,
5519,3,Pç. Comércio,,38.70889620,-9.13600870,,,0,,,
21304,19,Montes Claros,,38.71783650,-9.19930300,,,0,,,
21305,6,Pq. Infantil Alvito,,38.72021510,-9.18541460,,,0,,,
21306,23,Pq. Infantil Alvito,,38.71997950,-9.18540260,,,0,,,
21307,7,Estr. Alvito / Al. Keil Amaral,,38.72273280,-9.18659770,,,0,,,
21301,12,Alto Moinhos,,38.72173060,-9.19710900,,,0,,,
21302,20,Alto Moinhos,,38.72207760,-9.19677900,,,0,,,
21303,13,Montes Claros,,38.71773750,-9.19955800,,,0,,,
21308,22,Estr. Alvito / Al. Keil Amaral,,38.72260760,-9.18667260,,,0,,,
4218,2,Algés - Pç. D. Manuel I,,38.69950150,-9.22849100,,,0,,,
4208,30,R. Damião Góis,,38.69835750,-9.22504900,,,0,,,
6607,7,Gomes Freire - R. Joaquim Bonifácio,,38.72809450,-9.14277300,,,0,,,
7509,17,Av. Mar. Gomes Costa (Qta. Teresinhas),,38.76122550,-9.12193900,,,0,,,
7519,28,R. Cidade Quelimane,,38.76576460,-9.12490300,,,0,,,
8018,18,Igreja Sto. Condestável (C. Ourique),,38.71497050,-9.16642700,,,0,,,
8008,13,R. Francisco Metrass,,38.71839250,-9.16624100,,,0,,,
8028,29,Campo Ourique (Prazeres),,38.71425350,-9.16997800,,,0,,,
7607,12,Geofísica,,38.77595250,-9.12636400,,,0,,,
9008,19,Casal Vistoso,,38.74141550,-9.12941400,,,0,,,
1509,4,R. Filipe Mata,,38.74126460,-9.15939800,,,0,,,
7218,49,Olival Basto,,38.78965450,-9.16849600,,,0,,,
1607,13,Sete Rios,,38.74158700,-9.16924400,,,0,,,
12834,15,Qta. Inglesinhos,,38.76331150,-9.18060800,,,0,,,
12835,14,R. Padre Américo,,38.76155050,-9.17982300,,,0,,,
12836,14,R. Padre Américo,,38.76173550,-9.17962500,,,0,,,
12830,11,R. Eugénio Salvador,,38.76770650,-9.18027100,,,0,,,
12831,10,Az. Serrado,,38.76742950,-9.18556800,,,0,,,
12832,14,Az. Serrado,,38.76763950,-9.18538800,,,0,,,
12833,12,R. Virgilio Martinho,,38.76516350,-9.17852700,,,0,,,
8419,21,C. Comercial Olivais - R. Cidade Bissau,,38.76302860,-9.11406300,,,0,,,
8409,19,Cabo Ruivo - Av. Mar. Gomes Costa,,38.75875850,-9.11343300,,,0,,,
8439,3,R. Mocimboa Praia,,38.75869750,-9.11053700,,,0,,,
1208,15,Mq. Pombal - R. Braamcamp,,38.72401550,-9.15089700,,,0,,,
1218,18,R. Sta. Marta,,38.72529150,-9.14602200,,,0,,,
5707,17,Campo Grande - Av. Brasil,,38.75579430,-9.15152700,,,0,,,
1228,27,Mq. Pombal - Av. Fontes P. Melo,,38.72639120,-9.14967100,,,0,,,
8513,10,R. D. João V,,38.72102050,-9.16136600,,,0,,,
6609,19,R. Conde Redondo,,38.72654150,-9.14497500,,,0,,,
9419,23,Lg. Necessidades,,38.70715550,-9.17156840,,,0,,,
3607,22,B. Armador,,38.74624750,-9.11976200,,,0,,,
2218,17,Av. Paulo VI,,38.74825550,-9.10877900,,,0,,,
9503,17,R. Junqueira (Centro Congressos),,38.70003450,-9.18365100,,,0,,,
2208,23,Estação Braço Prata,,38.74717860,-9.10472700,,,0,,,
6707,9,R. Borges Carneiro / Cç. Estrela,,38.71226350,-9.15662100,,,0,,,
7609,14,Gasolineiras,,38.78098650,-9.12483600,,,0,,,
7727,24,R. Mercado,,38.77095750,-9.11713500,,,0,,,
7707,22,Piscina Olivais,,38.76860450,-9.11489900,,,0,,,
7717,25,Esc. Olivais,,38.76528350,-9.10961100,,,0,,,
1609,6,Sete Rios,,38.74144910,-9.16949180,,,0,,,
1619,1,Sete Rios,,38.74131400,-9.17024500,,,0,,,
1707,25,Picoas,,38.73012350,-9.14543400,,,0,,,
19001,1,Centro Sul,,38.66788700,-9.16414100,,,0,,,
4003,14,Alcântara Mar,,38.70287050,-9.17323600,,,0,,,
8519,8,R. D. João V,,38.72105650,-9.16097500,,,0,,,
8509,18,Av. Cons. Fernando Sousa,,38.72521950,-9.15996800,,,0,,,
2707,12,R. B (B. Liberdade),,38.73484850,-9.17042300,,,0,,,
3609,23,Av. Vergílio Ferreira (Fundação Oriente),,38.74352550,-9.11885800,,,0,,,
8607,10,Viaduto Duarte Pacheco,,38.72330720,-9.16642980,,,0,,,
9509,17,Tv. Artur Lamas,,38.69972750,-9.19268200,,,0,,,
3707,19,Av. João Paulo II,,38.74741850,-9.11026700,,,0,,,
3717,7,Av. Paulo VI (Igreja),,38.74307050,-9.11179400,,,0,,,
6023,35,B. Sete Céus,,38.78604660,-9.14992900,,,0,,,
6013,15,R. Melo Antunes,,38.77919820,-9.14467670,,,0,,,
9607,9,R. Jerónimos,,38.69979260,-9.20590800,,,0,,,
6003,37,Qta. Pailepa,,38.78789290,-9.14549380,,,0,,,
7709,23,Av. Berlim / Av. Cidade Luanda,,38.76824450,-9.11118000,,,0,,,
7719,18,Av. Berlim,,38.76694450,-9.11016800,,,0,,,
7003,7,Pç. Paiva Couceiro,,38.73041150,-9.12779600,,,0,,,
7013,25,R. Morais Soares (Cemitério),,38.73061550,-9.12533600,,,0,,,
9208,44,Campo Mártires Pátria,,38.72224050,-9.13988900,,,0,,,
1709,19,Pç. José Fontana,,38.73073960,-9.14376300,,,0,,,
1003,3,Restauradores,,38.71598350,-9.14158800,,,0,,,
2709,13,Serafina,,38.73251150,-9.17179600,,,0,,,
4113,22,Belém (Museu Coches),,38.69737750,-9.19881600,,,0,,,
2053,44,Entrecampos - Av. EUA,,38.74836750,-9.14701200,,,0,,,
8609,28,Arco Carvalhão,,38.72420250,-9.16526200,,,0,,,
2013,23,Entrecampos,,38.74881050,-9.14783900,,,0,,,
2003,25,Entrecampos Norte,,38.74979750,-9.14824500,,,0,,,
3719,16,Av. Paulo VI / R. José Patrocínio,,38.74433550,-9.11076600,,,0,,,
7410,13,Lg. Frei Heitor Pinto,,38.75522450,-9.13918300,,,0,,,
8717,15,B. Monsanto,,38.73278950,-9.19371800,,,0,,,
8707,16,Luneta Quartéis,,38.73146850,-9.19765500,,,0,,,
6019,10,Av. Nuno Krus Abecassis,,38.77962330,-9.15118290,,,0,,,
9609,21,Mosteiro Jerónimos,,38.69733250,-9.20341700,,,0,,,
6009,13,Campo Amoreiras,,38.78550210,-9.14280420,,,0,,,
3003,6,Damaia - R. D. Francisco Almeida,,38.74982830,-9.21288710,,,0,,,
3013,3,Damaia - Av. D. João V,,38.74549890,-9.21783280,,,0,,,
50010,19,R. Prof. João Barreira,,38.76253950,-9.17081300,,,0,,,
50011,5,Telheiras,,38.76057750,-9.16972300,,,0,,,
50012,20,Telheiras,,38.76042780,-9.16951090,,,0,,,
50013,3,R. Prof. Fernando Fonseca,,38.76171550,-9.16518600,,,0,,,
50014,22,R. Prof. Fernando Fonseca,,38.76157260,-9.16507400,,,0,,,
50015,24,Esc. Telheiras,,38.76014650,-9.17440200,,,0,,,
50016,23,Esc. Telheiras,,38.76000820,-9.17408330,,,0,,,
50017,20,Qta. Barros,,38.75572050,-9.16828900,,,0,,,
6123,9,R. Campolide (Escola),,38.73226350,-9.16243200,,,0,,,
6113,26,Campolide,,38.72675710,-9.16236920,,,0,,,
9707,27,Av. Restelo,,38.69933100,-9.21415760,,,0,,,
6103,20,R. Artilharia Um / R. Francisco M. Melo,,38.72756300,-9.15900620,,,0,,,
7009,15,Esc. Nuno Gonçalves,,38.72760950,-9.12820500,,,0,,,
1410,32,Av. Marquês Tomar,,38.73493260,-9.14956500,,,0,,,
7103,29,Conde Barão - Av. D. Carlos I,,38.70889850,-9.15293500,,,0,,,
4502,5,Sul e Sueste,,38.70830250,-9.13335300,,,0,,,
50210,1,Centro Congressos,,38.69966750,-9.18373500,,,0,,,
50216,15,R. Prior / R. Ribeiro Sanches,,38.70625050,-9.16575200,,,0,,,
50218,14,R. Olival,,38.70479350,-9.16657700,,,0,,,
50219,2,Sta. Justa - Lg. Carmo,,38.71205160,-9.13958440,,,0,,,
2410,38,Parque Nações Sul,,38.75502350,-9.09660400,,,0,,,
5502,48,Pç. Comércio,,38.70900050,-9.13532300,,,0,,,
5512,35,Pç. Comércio,,38.70827950,-9.13632360,,,0,,,
50111,26,Cemitério Carnide,,38.77325360,-9.18292300,,,0,,,
50110,24,Serra Luz,,38.77243460,-9.19019400,,,0,,,
50117,14,Poço Bispo,,38.74251450,-9.10028000,,,0,,,
50116,11,Sapadores,,38.72179650,-9.12875600,,,0,,,
50119,20,R. Faustino José Rodrigues,,38.73421150,-9.11548300,,,0,,,
50118,9,Poço Bispo,,38.74175150,-9.10041100,,,0,,,
4109,11,Belém,,38.69713310,-9.20071840,,,0,,,
1103,4,Av. Liberdade,,38.71973250,-9.14501100,,,0,,,
2019,5,Estação Entrecampos,,38.74501650,-9.14770800,,,0,,,
2009,7,Av. Forças Armadas / R. Sanches Coelho,,38.74773450,-9.15257300,,,0,,,
6502,5,Estefânia,,38.73255250,-9.14099100,,,0,,,
50416,21,R. Raul Carapinha,,38.74140150,-9.17363400,,,0,,,
50417,19,R. Fernando Sylan,,38.74020350,-9.17335100,,,0,,,
50410,41,R. Eng. Maciel Chaves,,38.73632450,-9.12377500,,,0,,,
50411,21,Esc. Luis António Verney,,38.73454650,-9.11354000,,,0,,,
50412,22,Estr. Marvila,,38.73464450,-9.10856700,,,0,,,
50413,23,Cç. Duque Lafões,,38.73375950,-9.10742200,,,0,,,
7406,30,Av. Sta. Joana Princesa,,38.75468050,-9.13655000,,,0,,,
50418,18,R. Alcina Bastos,,38.74126150,-9.17596400,,,0,,,
50419,10,R. Soeiros,,38.75586950,-9.17730400,,,0,,,
2133,35,Estação Sta. Apolónia,,38.71400590,-9.12228500,,,0,,,
2123,16,Campo Sta. Clara,,38.71538650,-9.12307900,,,0,,,
2113,5,Estação Sta. Apolónia,,38.71431800,-9.12156200,,,0,,,
2103,16,R. Bica Sapato,,38.71637250,-9.12062200,,,0,,,
4305,10,Estr. Costa,,38.70336550,-9.25143100,,,0,,,
3009,3,R. Gen. Fernando Tamagnini,,38.74631840,-9.22260520,,,0,,,
7502,15,Av. Brasil (Rot. Relógio),,38.76236050,-9.13049400,,,0,,,
3019,2,R. Bernardino Machado,,38.74321450,-9.21875900,,,0,,,
50313,27,Vale Forno,,38.77569550,-9.17810300,,,0,,,
7512,30,Qta. Narigão,,38.75825050,-9.13018300,,,0,,,
8013,31,Esc. Manuel Maia,,38.71698850,-9.16962500,,,0,,,
8003,4,R. 4 Infantaria,,38.71826750,-9.16478000,,,0,,,
50316,13,Passeio Adamastor,,38.75773250,-9.09660300,,,0,,,
50315,39,Passeio Adamastor,,38.75793450,-9.09630900,,,0,,,
50314,28,Qta. Olival (C. Triagem),,38.77678870,-9.17481120,,,0,,,
6129,11,Campolide (Av. Cons. Fernando Sousa),,38.72739270,-9.16143380,,,0,,,
9709,21,R. Alto Duque,,38.70101450,-9.22146000,,,0,,,
6119,19,Campolide,,38.72772550,-9.16204900,,,0,,,
6109,7,B. Campolide,,38.72896050,-9.16609100,,,0,,,
50616,1,Av. Inf. D. Henrique (Ponte Xabregas),,38.72538880,-9.11214030,,,0,,,
50617,5,Av. Guerra Junqueiro,,38.73871320,-9.13550110,,,0,,,
50614,6,R. Garridas,,38.74558160,-9.20063000,,,0,,,
50612,12,R. Azevinho,,38.73302000,-9.20600600,,,0,,,
50613,17,B. Boavista,,38.73514000,-9.20460000,,,0,,,
50611,23,Centro Saúde Benfica,,38.74807000,-9.20029000,,,0,,,
1406,30,B. Azul,,38.73340950,-9.15451700,,,0,,,
50618,9,R. Barão Sabrosa,,38.73724420,-9.12912210,,,0,,,
50619,22,R. Sousa Viterbo,,38.72732430,-9.12109730,,,0,,,
50515,2,R. Guiomar Torresão,,38.75773550,-9.19156200,,,0,,,
50514,1,Carnide (C. Comercial),,38.75625450,-9.18814600,,,0,,,
1502,20,B. Azul (Gulbenkian),,38.73652750,-9.15593200,,,0,,,
1512,29,R. Filipe Mata,,38.74131160,-9.16028700,,,0,,,
50517,12,Panteão Nacional,,38.71457950,-9.12525500,,,0,,,
50516,5,R. Damasceno Monteiro,,38.72103450,-9.13177900,,,0,,,
50511,8,R. Prof. Lindley Cintra,,38.77000250,-9.19289700,,,0,,,
50510,16,Cç. Quintinha,,38.72594830,-9.16941060,,,0,,,
50512,9,R. Rio Cávado (C. Cultural),,38.76978950,-9.19105700,,,0,,,
50519,14,R. Remédios,,38.71211550,-9.12704700,,,0,,,
50518,13,R. Paraíso,,38.71342150,-9.12527000,,,0,,,
7305,12,Av. Alm. Gago Coutinho / Av. EUA,,38.74959760,-9.13074600,,,0,,,
5804,29,Campo Grande Norte,,38.75786450,-9.15540400,,,0,,,
5814,15,Hosp. Pulido Valente,,38.76526550,-9.15734600,,,0,,,
5824,23,R. Francisco Stromp,,38.76343350,-9.15944300,,,0,,,
5508,18,Pç. Comércio,,38.70837450,-9.13773700,,,0,,,
2512,42,R. Caribe,,38.76621850,-9.09780100,,,0,,,
13622,21,R. António Albino Machado,,38.75460550,-9.16814100,,,0,,,
8440,4,R. Manhiça,,38.75829360,-9.10824600,,,0,,,
13620,23,R. S. Tomás Aquino,,38.75146850,-9.16766800,,,0,,,
13621,12,R. António Albino Machado,,38.75419210,-9.16912320,,,0,,,
8430,16,Esc. Vitorino Nemésio,,38.75664450,-9.11462100,,,0,,,
8420,10,Av. Pádua,,38.76298150,-9.10685700,,,0,,,
6824,23,Jardim Amoreiras,,38.72146850,-9.15638200,,,0,,,
6804,17,Rato,,38.72008550,-9.15483900,,,0,,,
4219,11,Algés - Pç. D. Manuel I,,38.69940750,-9.22856900,,,0,,,
4209,2,R. Damião Góis,,38.69822450,-9.22503700,,,0,,,
2129,15,Mercado Sta. Clara,,38.71538050,-9.12541900,,,0,,,
6610,20,R. Conde Redondo,,38.72661750,-9.14508700,,,0,,,
9420,5,Lg. Necessidades,,38.70711250,-9.17142100,,,0,,,
7824,13,Av. Boa Esperança,,38.77439510,-9.09749910,,,0,,,
7804,6,Pç. José Queirós,,38.77423750,-9.10623800,,,0,,,
7814,1,Estação Oriente (Interface),,38.76817550,-9.09992700,,,0,,,
7518,27,R. Cidade Beira,,38.76782250,-9.12337300,,,0,,,
8019,2,Igreja Sto. Condestável (C. Ourique),,38.71483850,-9.16650200,,,0,,,
8009,14,R. Sampaio Bruno,,38.71833250,-9.16936300,,,0,,,
8029,13,Campo Ourique (Prazeres),,38.71469350,-9.17005700,,,0,,,
7610,13,Gasolineiras,,38.78046250,-9.12543000,,,0,,,
8113,7,R. João Deus,,38.71267850,-9.16022000,,,0,,,
8103,5,Jardim Estrela,,38.71556050,-9.16000700,,,0,,,
2335,5,R. Vila Fontes,,38.75834450,-9.10563900,,,0,,,
2315,38,Av. Inf. D. Henrique / Av. Berlim,,38.76683250,-9.10399900,,,0,,,
9009,37,Casal Vistoso,,38.74134550,-9.12817300,,,0,,,
9103,9,R. Penha França,,38.72436450,-9.12961600,,,0,,,
9113,11,R. Bartolomeu Costa,,38.72056350,-9.12376800,,,0,,,
3305,7,B. Santos,,38.74484250,-9.15657800,,,0,,,
1814,7,Av. República,,38.73826350,-9.14605400,,,0,,,
1508,17,Pç. Espanha,,38.73820600,-9.15890900,,,0,,,
7209,2,Qta. Lavadeiras,,38.78377750,-9.16406300,,,0,,,
1610,20,Sete Rios,,38.74082520,-9.16812350,,,0,,,
1620,14,Av. Columb. B. Pinheiro (Est. Sete Rios),,38.73946050,-9.16756500,,,0,,,
5802,17,Hipódromo,,38.75786460,-9.16287400,,,0,,,
5832,33,Qta. Lambert - R. Agostinho Neto,,38.76323150,-9.15345400,,,0,,,
2814,9,R. Vasco Botelho Amaral,,38.74275110,-9.20189090,,,0,,,
2804,26,R. Gen. Morais Sarmento,,38.74777750,-9.19781700,,,0,,,
5906,21,Lumiar,,38.77287150,-9.16131700,,,0,,,
5916,9,R. Rainha D. Luísa Gusmão,,38.76745850,-9.15961100,,,0,,,
5926,8,Ameixoeira,,38.78187950,-9.15866300,,,0,,,
13124,23,Estádio Restelo,,38.70418550,-9.20785200,,,0,,,
13121,17,R. Pero Alenquer,,38.70315250,-9.21119400,,,0,,,
8416,35,Cabo Ruivo - Av. Dr. Augusto Castro,,38.75716360,-9.11255800,,,0,,,
13120,25,Restelo (EPUL),,38.70557650,-9.21248580,,,0,,,
13123,12,R. Cons. Martins Carvalho,,38.70657750,-9.20402200,,,0,,,
8406,26,Cabo Ruivo - Av. Mar. Gomes Costa,,38.75903560,-9.11340200,,,0,,,
13122,24,R. Pero Alenquer,,38.70337770,-9.21146790,,,0,,,
8426,18,R. Cons. Emídio Navarro,,38.75686850,-9.11850700,,,0,,,
6812,8,Rato,,38.72024550,-9.15488600,,,0,,,
6802,8,Av. Álvares Cabral,,38.71834050,-9.15694400,,,0,,,
3824,20,Corpo Santo,,38.70723130,-9.14117120,,,0,,,
3804,36,Cais Sodré,,38.70591650,-9.14396300,,,0,,,
1209,7,Mq. Pombal - R. Joaquim A. Aguiar,,38.72537840,-9.15204330,,,0,,,
5706,30,Campo Grande - Av. Brasil,,38.75468750,-9.15190400,,,0,,,
1229,11,Marquês Pombal,,38.72566050,-9.14904100,,,0,,,
8512,11,Amoreiras,,38.72382150,-9.16091400,,,0,,,
8502,26,Amoreiras,,38.72408850,-9.16072000,,,0,,,
6906,19,Hosp. D. Estefânia,,38.72753750,-9.14080000,,,0,,,
9406,24,R. Maria Pia,,38.71283460,-9.17362900,,,0,,,
9416,18,Qta. Jacinto,,38.70818350,-9.17661370,,,0,,,
9426,4,R. Necessidades,,38.70574060,-9.16975600,,,0,,,
3610,8,Av. Vergílio Ferreira (Fundação Oriente),,38.74413550,-9.11844700,,,0,,,
7822,14,Av. D. João II,,38.77132550,-9.09776300,,,0,,,
7802,41,R. Sarg. Armando Monteiro Ferreira,,38.77170850,-9.10998400,,,0,,,
7812,50,Pç. José Queirós,,38.77379150,-9.10475500,,,0,,,
2219,7,Av. Paulo VI,,38.74790260,-9.10895100,,,0,,,
2209,37,B. Prodac,,38.74660050,-9.10711100,,,0,,,
6716,6,R. Palmeira,,38.71483650,-9.15015100,,,0,,,
9502,14,Hosp. Egas Moniz - Av. India,,38.69776060,-9.18697500,,,0,,,
6706,13,R. S. Bento,,38.71528050,-9.15438000,,,0,,,
9512,30,R. Pinto Ferreira,,38.69822450,-9.19135300,,,0,,,
7906,5,R. Laureano Oliveira,,38.77664210,-9.10285080,,,0,,,
7916,1,Moscavide (Qta. Laranjeiras),,38.77191050,-9.10148200,,,0,,,
8109,5,Estrela - R. Domingos Sequeira,,38.71408660,-9.16171100,,,0,,,
7726,35,R. Mercado,,38.77052460,-9.11693700,,,0,,,
7706,13,Piscina Olivais,,38.76961440,-9.11247280,,,0,,,
7716,21,Av. Berlim,,38.76715050,-9.11021400,,,0,,,
9109,13,Sapadores,,38.72219150,-9.12872000,,,0,,,
9119,6,R. Sra. Glória,,38.71821750,-9.12766500,,,0,,,
9129,11,Sapadores,,38.72097550,-9.13019800,,,0,,,
1802,5,Saldanha,,38.73389550,-9.14506500,,,0,,,
1812,27,Saldanha,,38.73362150,-9.14508600,,,0,,,
8305,12,Cç. Grilo,,38.73024550,-9.10788900,,,0,,,
1906,3,Campo Pequeno - Av. República,,38.74170750,-9.14689100,,,0,,,
2812,13,Estação Benfica,,38.74488150,-9.19981900,,,0,,,
2802,7,Estação Benfica - Av. Gomes Pereira,,38.74544350,-9.19803500,,,0,,,
2906,17,R. Prof. Jorge Silva Horta,,38.74595900,-9.20471300,,,0,,,
13824,3,Lg. Terreirinho,,38.71606410,-9.13307190,,,0,,,
13822,4,R. Lagares,,38.71546150,-9.13208500,,,0,,,
3802,8,Cais Sodré,,38.70631050,-9.14525900,,,0,,,
3812,39,Cais Sodré,,38.70568150,-9.14396900,,,0,,,
8844,26,Alto Zambujal,,38.73633350,-9.21259600,,,0,,,
8814,14,Buraca,,38.74377950,-9.20576500,,,0,,,
8804,32,Qta. Torres,,38.73361950,-9.20766100,,,0,,,
5708,12,Campo Grande - Av. Brasil,,38.75513750,-9.15034500,,,0,,,
8824,12,R. Creche,,38.74407250,-9.21087500,,,0,,,
8508,6,Cruz Almas,,38.72534150,-9.16333210,,,0,,,
2716,1,Estação Campolide,,38.73137810,-9.16837720,,,0,,,
2706,4,B. Liberdade,,38.73308050,-9.16911700,,,0,,,
4114,30,Altinho (MAAT),,38.69750950,-9.19601000,,,0,,,
4104,2,Belém - Cç. Ajuda,,38.69798450,-9.19938400,,,0,,,
3926,4,Santos,,38.70647750,-9.15447800,,,0,,,
3906,11,Cais Rocha (Museu Nac. Arte Antiga),,38.70377630,-9.16235320,,,0,,,
8610,5,Arco Carvalhão,,38.72402050,-9.16537300,,,0,,,
9804,21,R. D. Fuas Roupinho,,38.72461250,-9.11638100,,,0,,,
9814,41,Cç. Cruz Pedra,,38.72035550,-9.11710900,,,0,,,
9824,4,Cç. Cruz Pedra,,38.72045850,-9.11780600,,,0,,,
9508,29,R. Pinto Ferreira,,38.69782750,-9.19175800,,,0,,,
6708,12,R. Borges Carneiro / Cç. Estrela,,38.71228750,-9.15633600,,,0,,,
3706,6,Pç. Eduardo Mondlane,,38.74413250,-9.11368100,,,0,,,
3716,17,Av. Paulo VI (Igreja),,38.74246060,-9.11293000,,,0,,,
2319,33,Az. Baptista,,38.75305610,-9.10327110,,,0,,,
6020,31,Av. Nuno Krus Abecassis,,38.77939600,-9.15120260,,,0,,,
6010,4,Qta. Pailepa,,38.78808650,-9.14565300,,,0,,,
9610,16,Mosteiro Jerónimos,,38.69722350,-9.20506100,,,0,,,
7708,10,Piscina Olivais,,38.76869750,-9.11438700,,,0,,,
7718,19,Esc. Olivais,,38.76489650,-9.10977600,,,0,,,
6124,24,R. Campolide (Escola),,38.73220950,-9.16273900,,,0,,,
6104,7,Campolide,,38.72649450,-9.16226920,,,0,,,
3309,8,Qta. Freiras,,38.74394250,-9.15477200,,,0,,,
7010,7,Pç. Paiva Couceiro,,38.73136250,-9.12708900,,,0,,,
9209,1,Desterro,,38.72078800,-9.13815200,,,0,,,
7104,16,Conde Barão - Av. D. Carlos I,,38.70940990,-9.15325920,,,0,,,
1010,32,Restauradores,,38.71619460,-9.14175820,,,0,,,
8842,2,B. Zambujal,,38.73867760,-9.21036400,,,0,,,
2718,22,R. Campolide / Av. José Malhoa,,38.73670230,-9.16780200,,,0,,,
2708,3,R. B (B. Liberdade),,38.73464750,-9.17022300,,,0,,,
6401,15,Av. João XXI,,38.74220350,-9.14035000,,,0,,,
4112,31,Belém (Museu Coches),,38.69745650,-9.19858500,,,0,,,
4102,15,Estação Fluvial Belém,,38.69671350,-9.19913100,,,0,,,
8916,21,R. João Nascimento Costa,,38.73415550,-9.12083100,,,0,,,
8906,31,R. Capitão Roby,,38.73796850,-9.12243200,,,0,,,
2020,2,Estação Entrecampos,,38.74456950,-9.14762200,,,0,,,
2010,26,Av. Forças Armadas / R. Sanches Coelho,,38.74770850,-9.15167600,,,0,,,
4206,31,Algés,,38.69862850,-9.22739710,,,0,,,
9802,22,Cç. Lajes,,38.72555350,-9.11871900,,,0,,,
9812,28,Av. Inf. D. Henrique (Tipografia),,38.72280930,-9.11355940,,,0,,,
9822,9,Av. Inf. D. Henrique (Ponte Xabregas),,38.72553480,-9.11239200,,,0,,,
3708,5,Pç. Dr. Fernando Amado,,38.74633750,-9.11297400,,,0,,,
3718,9,Av. Paulo VI (Igreja),,38.74319350,-9.11194700,,,0,,,
7401,14,Av. Gago Coutinho / Av. D. Rodrigo Cunha,,38.75509050,-9.13020300,,,0,,,
7411,19,Lg. Frei Heitor Pinto,,38.75429150,-9.13888700,,,0,,,
8716,17,Tribunal Monsanto,,38.73295750,-9.19192300,,,0,,,
8706,18,Monsanto,,38.73256250,-9.18975900,,,0,,,
2124,3,Campo Sta. Clara,,38.71578130,-9.12386530,,,0,,,
2114,2,Estação Sta. Apolónia,,38.71353050,-9.12280700,,,0,,,
2104,46,R. Bica Sapato,,38.71689000,-9.12071750,,,0,,,
9906,4,Sta. Catarina,,38.71101070,-9.14692890,,,0,,,
3020,30,R. Bernardino Machado,,38.74360960,-9.21966400,,,0,,,
3010,16,Pç. Marquês Minas,,38.74412050,-9.21990300,,,0,,,
6132,9,B. Cç. Mestres - Rua 12,,38.72798550,-9.17039400,,,0,,,
6122,25,R. Campolide,,38.72931760,-9.16243800,,,0,,,
6112,7,B. Cç. Mestres - Rua 5,,38.72626750,-9.16754600,,,0,,,
9706,7,R. D. Constantino Bragança,,38.70636650,-9.21605900,,,0,,,
9716,4,R. S. Francisco Xavier,,38.69877360,-9.21783600,,,0,,,
6102,8,Campolide,,38.72703940,-9.16237770,,,0,,,
8319,30,Xabregas,,38.72610750,-9.11348900,,,0,,,
8309,28,Xabregas - R. Manutenção,,38.72670750,-9.10985370,,,0,,,
1401,3,Igreja S. Sebastião Pedreira,,38.73180550,-9.15161200,,,0,,,
7102,9,Conde Barão - Av. 24 Julho,,38.70639380,-9.14909410,,,0,,,
4501,4,Sul e Sueste,,38.70851650,-9.13355600,,,0,,,
7216,8,Qta. Moleirinha,,38.78432150,-9.16132000,,,0,,,
2401,11,Av. Mediterrâneo,,38.76240660,-9.09846400,,,0,,,
5501,21,Pç. Comércio,,38.70837510,-9.13636550,,,0,,,
33102,12,Av. Berna (Rego),,38.73980760,-9.15165200,,,0,,,
33101,12,Av. Berna (Rego),,38.73975550,-9.15121300,,,0,,,
1102,9,Av. Liberdade,,38.72024450,-9.14571600,,,0,,,
6501,40,Estefânia,,38.73211950,-9.14105200,,,0,,,
4210,11,Algés,,38.69845630,-9.22748030,,,0,,,
1206,8,Mq. Pombal - Av. Fontes P. Melo,,38.72625430,-9.14975820,,,0,,,
4220,1,Algés,,38.69948450,-9.22779100,,,0,,,
1216,8,Mq. Pombal - R. Alexandre Herculano,,38.72267050,-9.14938200,,,0,,,
7407,13,Av. Sta. Joana Princesa,,38.75458950,-9.13638000,,,0,,,
8718,16,B. Monsanto,,38.73270750,-9.19360400,,,0,,,
2132,38,Estação Sta. Apolónia,,38.71419730,-9.12210190,,,0,,,
8708,15,Luneta Quartéis,,38.73145250,-9.19745900,,,0,,,
2122,13,R. Paraíso,,38.71385950,-9.12470700,,,0,,,
4304,9,Cruz Quebrada,,38.70186050,-9.25134400,,,0,,,
7521,30,R. Cidade Nampula,,38.76430450,-9.12045600,,,0,,,
7501,30,Av. Brasil (Rot. Relógio),,38.76240560,-9.13008400,,,0,,,
7511,20,Av. Alm. Gago Coutinho (Rot. Relógio),,38.76236760,-9.12944900,,,0,,,
8010,29,Terramotos,,38.72155450,-9.16719700,,,0,,,
2206,24,Vale Formoso Cima,,38.74944450,-9.10481200,,,0,,,
6128,13,R. Artilharia Um,,38.72668850,-9.15857200,,,0,,,
6118,29,Palácio Justiça,,38.73113850,-9.15608200,,,0,,,
6108,9,Cç. Mestres,,38.72692050,-9.16497900,,,0,,,
8114,19,Estrela (Basílica),,38.71386350,-9.16059800,,,0,,,
8104,9,Jardim Estrela,,38.71577050,-9.15957700,,,0,,,
1407,6,Av. Visconde Valmor,,38.73751750,-9.14951400,,,0,,,
9104,2,R. Penha França,,38.72387560,-9.12937700,,,0,,,
9114,42,R. Afonso Domingues,,38.72064450,-9.12455700,,,0,,,
9124,33,R. Leite Vasconcelos,,38.71762120,-9.12506890,,,0,,,
4507,39,Sul e Sueste,,38.70737750,-9.13306100,,,0,,,
1501,5,B. Azul (Gulbenkian),,38.73670650,-9.15580000,,,0,,,
1511,10,Av. Calouste Gulbenkian (Viaduto),,38.73616350,-9.16020900,,,0,,,
7304,32,Qta. Sto. António,,38.75189760,-9.13081400,,,0,,,
5805,30,Campo Grande Norte,,38.75808160,-9.15344590,,,0,,,
5815,5,Inst. Ricardo Jorge,,38.76705450,-9.16408000,,,0,,,
5825,19,Campo Grande (Metro),,38.76049450,-9.15598300,,,0,,,
5835,17,R. Manuel Marques,,38.76630950,-9.15417500,,,0,,,
2511,10,R. Caribe,,38.76597250,-9.09817400,,,0,,,
8441,7,Sport Lisboa Olivais,,38.76151650,-9.10828700,,,0,,,
5601,7,Igreja Sta. Maria Madalena,,38.71004550,-9.13526600,,,0,,,
8401,22,Av. Cidade L. Marques S,,38.76267150,-9.11938200,,,0,,,
6825,25,Rato,,38.72034850,-9.15366100,,,0,,,
6815,36,R. Custódio Vieira,,38.72032450,-9.15904700,,,0,,,
6805,34,Rato,,38.71983150,-9.15506500,,,0,,,
1220,40,Marquês Pombal,,38.72615560,-9.15024480,,,0,,,
2128,1,Estação Sta. Apolónia (Mercadorias),,38.71679460,-9.11915300,,,0,,,
2118,43,Estação Sta. Apolónia,,38.71379370,-9.12253760,,,0,,,
2108,44,R. Washington,,38.71823050,-9.12123200,,,0,,,
9401,9,Alcântara,,38.70685060,-9.17360800,,,0,,,
6611,8,Gomes Freire - R. Joaquim Bonifácio,,38.72733950,-9.14204000,,,0,,,
6601,18,Av. Duque Loulé,,38.72792350,-9.14515200,,,0,,,
9411,5,Qta. Cabrinha - Av. Ceuta,,38.71292390,-9.17535360,,,0,,,
9421,21,R. Possidónio Silva,,38.71042250,-9.17132400,,,0,,,
7825,15,Estação Oriente,,38.76717330,-9.09909350,,,0,,,
7805,1,Estação Oriente,,38.76847250,-9.09883100,,,0,,,
7507,15,Qta. Narigão,,38.75791150,-9.12992600,,,0,,,
7517,39,Pç. Aeroporto,,38.76321750,-9.12859900,,,0,,,
2220,25,Vale Formoso Cima,,38.75043450,-9.10439200,,,0,,,
2210,7,B. Prodac,,38.74673850,-9.10687100,,,0,,,
7601,40,Aeroporto,,38.76782850,-9.12870900,,,0,,,
8112,14,Estrela (Basílica),,38.71371660,-9.16023000,,,0,,,
8102,20,Estrela,,38.71327550,-9.16217100,,,0,,,
2324,2,Av. Inf. D. Henrique / Av. Berlim,,38.76657050,-9.10437100,,,0,,,
2304,5,Rot. Cabo Ruivo,,38.75634210,-9.10454370,,,0,,,
9102,3,Pç. António Sardinha,,38.72596950,-9.12993900,,,0,,,
9112,41,R. Sapadores,,38.72107750,-9.12703800,,,0,,,
9122,32,R. Sra. Glória,,38.71804050,-9.12740600,,,0,,,
3304,27,R. Beneficência,,38.74396650,-9.15808800,,,0,,,
1805,41,Av. República,,38.73833550,-9.14581800,,,0,,,
1507,10,Av. Madame Curie,,38.73833250,-9.16195800,,,0,,,
9206,32,Hosp. Sto. António Capuchos,,38.72256750,-9.14154500,,,0,,,
1601,11,R. Dr. António Granjo,,38.73883350,-9.16460800,,,0,,,
1611,13,Sete Rios,,38.74128400,-9.16795300,,,0,,,
1621,12,Estação Sete Rios,,38.74056250,-9.16740500,,,0,,,
5803,13,Campo Grande Norte,,38.75910960,-9.15567800,,,0,,,
5813,4,Av. Rainha D. Amélia,,38.76676940,-9.16065700,,,0,,,
5823,2,Inst. Ricardo Jorge,,38.76255750,-9.16361100,,,0,,,
5833,19,Qta. Lambert - R. Agostinho Neto,,38.76294650,-9.15349600,,,0,,,
2805,7,Estação Benfica,,38.74470550,-9.19884700,,,0,,,
5905,2,Lumiar (Estr. Torre),,38.77378950,-9.16139200,,,0,,,
5915,32,Lumiar - Av. Padre Cruz,,38.77449550,-9.16378400,,,0,,,
5925,15,R. Prof. M. Valadares,,38.77560200,-9.16072960,,,0,,,
5935,7,INETI,,38.76904150,-9.17924700,,,0,,,
8407,18,Av. Mar. Gomes Costa (Poço Cortes),,38.75975960,-9.11676800,,,0,,,
8437,31,Olivais (Centro Cívico),,38.76324750,-9.11735600,,,0,,,
8427,26,R. Cons. Emídio Navarro (ISEL),,38.75709850,-9.11660400,,,0,,,
6823,13,Jardim Amoreiras,,38.72151350,-9.15653700,,,0,,,
6813,37,Rato - R. D. João V,,38.72076550,-9.15631600,,,0,,,
3825,3,R. Alecrim,,38.70758950,-9.14334200,,,0,,,
6803,6,Av. Álvares Cabral,,38.71768850,-9.15716500,,,0,,,
3805,1,Cais Sodré,,38.70531950,-9.14391100,,,0,,,
5701,28,Cidade Universitária,,38.75384950,-9.15651500,,,0,,,
8511,17,Amoreiras,,38.72386450,-9.16057600,,,0,,,
8501,9,Amoreiras,,38.72438080,-9.16103910,,,0,,,
6905,14,Hosp. D. Estefânia,,38.72761150,-9.13977600,,,0,,,
9417,23,Alcântara,,38.70627450,-9.17338100,,,0,,,
3601,6,Lg. Chelas,,38.73982650,-9.11783400,,,0,,,
3611,16,B. Armador,,38.74708280,-9.11875520,,,0,,,
7823,3,Av. Boa Esperança,,38.77449750,-9.09709000,,,0,,,
7803,44,Olivais Velho - Av. Inf. D. Henrique,,38.77003850,-9.10431900,,,0,,,
7813,1,Estação Oriente (Interface),,38.76757050,-9.09998200,,,0,,,
6721,13,Cç. Estrela,,38.71221850,-9.15513600,,,0,,,
9501,13,Hosp. Egas Moniz - Av. India,,38.69742250,-9.18814600,,,0,,,
9511,26,R. Junqueira (Centro Congressos),,38.70000150,-9.18342700,,,0,,,
6701,30,Assembleia República,,38.71100350,-9.15350100,,,0,,,
7905,47,R. Laureano Oliveira,,38.77697060,-9.10174260,,,0,,,
7915,2,R. Pe. Joaquim Alves Correia,,38.77271330,-9.10279930,,,0,,,
8108,16,R. Domingos Sequeira,,38.71510250,-9.16303000,,,0,,,
7721,38,Pç. Casas Novas,,38.77291450,-9.11313100,,,0,,,
7701,33,Av. Cidade L. Marques N,,38.76740460,-9.11931300,,,0,,,
7711,27,Av. Berlim / Tv. Courelas,,38.76768750,-9.10583600,,,0,,,
9108,36,Av. General Roçadas,,38.72488150,-9.12861600,,,0,,,
9118,10,Sapadores,,38.72128350,-9.12919100,,,0,,,
9128,17,Sapadores,,38.72133860,-9.12989600,,,0,,,
1803,8,Saldanha,,38.73392300,-9.14534600,,,0,,,
8314,23,Av. Inf. D. Henrique (Beato ID),,38.73129830,-9.10552330,,,0,,,
8304,25,Xabregas,,38.72825350,-9.10964200,,,0,,,
9210,1,Campo Mártires Pátria,,38.72239250,-9.13961000,,,0,,,
1905,35,Campo Pequeno,,38.74355650,-9.14485700,,,0,,,
1915,13,Campo Pequeno - Av. Berna,,38.74112550,-9.14725900,,,0,,,
2813,8,R. José Augusto Seabra,,38.74417350,-9.20023800,,,0,,,
9304,26,R. Correia Teles,,38.71875250,-9.17128300,,,0,,,
2803,14,R. Gen. Morais Sarmento,,38.74731250,-9.19774600,,,0,,,
1701,38,Av. Fontes P. Melo,,38.72877750,-9.14775900,,,0,,,
5903,4,Qta. Conchas,,38.77033850,-9.15970600,,,0,,,
5913,4,Castanheira Moura,,38.77417950,-9.15686300,,,0,,,
5923,7,Cç. Carriche / Estr. Militar,,38.77809950,-9.16423700,,,0,,,
5933,21,Az. S. Gonçalo,,38.78186350,-9.15696300,,,0,,,
5953,10,R. F. Lopes Graça / R. César Oliveira,,38.76919540,-9.17149200,,,0,,,
2905,1,B. Sta. Cruz,,38.74770350,-9.20702600,,,0,,,
4001,15,Alcântara - Av. 24 Julho,,38.70414300,-9.17381900,,,0,,,
3803,19,Cais Sodré,,38.70624150,-9.14502000,,,0,,,
8845,5,Alto Zambujal,,38.73646150,-9.21275900,,,0,,,
8815,13,Estr. Alfragide,,38.74075350,-9.20889400,,,0,,,
8835,15,Estr. Buraca,,38.74163250,-9.20281700,,,0,,,
8517,24,R. Amoreiras,,38.72321360,-9.16011700,,,0,,,
8507,27,Cruz Almas,,38.72534250,-9.16362700,,,0,,,
2711,10,Tarujo,,38.73495490,-9.16508460,,,0,,,
2701,10,Estação Campolide,,38.73135860,-9.16853430,,,0,,,
6903,41,Hosp. D. Estefânia,,38.72946950,-9.14048900,,,0,,,
3905,16,Cais Rocha (Museu Nac. Arte Antiga),,38.70350450,-9.16272600,,,0,,,
3915,18,Santos-o-Velho,,38.70694300,-9.15817200,,,0,,,
8601,7,Av. Ceuta (Viveiros),,38.72297150,-9.17484700,,,0,,,
9805,13,R. Madre Deus,,38.72285250,-9.11509300,,,0,,,
9825,33,Cç. Cruz Pedra,,38.72038250,-9.11810300,,,0,,,
9507,15,R. Pinto Ferreira,,38.69801450,-9.19053500,,,0,,,
3701,14,R. Dinah Silveira Queiroz,,38.74073450,-9.11191200,,,0,,,
3711,8,B. Salgadas,,38.73840350,-9.11315200,,,0,,,
7903,48,Moscavide Centro - R. Franc. M. Beato,,38.77963250,-9.10250000,,,0,,,
6021,10,Av. Dr. José Salvado Sampaio,,38.78028950,-9.15321900,,,0,,,
6011,14,Igreja Charneca,,38.78340750,-9.14262500,,,0,,,
9601,11,Cç. Galvão,,38.70068150,-9.20299700,,,0,,,
6001,36,R. João Amaral,,38.78729550,-9.14916310,,,0,,,
7001,10,R. Barão Sabrosa,,38.73520050,-9.12896500,,,0,,,
7011,26,Pç. Paiva Couceiro / R. Morais Soares,,38.73211250,-9.12829200,,,0,,,
1903,42,Campo Pequeno - Av. República,,38.74277750,-9.14669200,,,0,,,
1001,34,Restauradores,,38.71569020,-9.14132380,,,0,,,
1011,35,Restauradores,,38.71583590,-9.14145190,,,0,,,
8843,29,B. Zambujal,,38.73873440,-9.21058240,,,0,,,
8813,12,R. Venezuela,,38.74510760,-9.20273900,,,0,,,
8803,8,Qta. Torres,,38.73321660,-9.20779900,,,0,,,
8823,9,R. Creche,,38.74398450,-9.21106200,,,0,,,
4111,10,Belém,,38.69711850,-9.20083400,,,0,,,
4101,12,Estação Fluvial Belém,,38.69621960,-9.19833600,,,0,,,
3913,26,Santos,,38.70664550,-9.15574900,,,0,,,
8915,43,R. Frederico Perry Vidal,,38.73599250,-9.12227400,,,0,,,
8905,3,R. Aquiles Machado,,38.73829550,-9.12471100,,,0,,,
2051,16,Estação Entrecampos,,38.74536950,-9.14780000,,,0,,,
2021,14,Estação Entrecampos,,38.74550360,-9.14739600,,,0,,,
2011,44,Entrecampos,,38.74757870,-9.14785810,,,0,,,
2001,41,Entrecampos,,38.74725830,-9.14779780,,,0,,,
4217,10,Palácio Anjos,,38.69923350,-9.23070800,,,0,,,
4207,23,Algés,,38.69928470,-9.22707920,,,0,,,
9803,12,R. D. Fuas Roupinho,,38.72440360,-9.11739000,,,0,,,
9813,9,Cç. Cruz Pedra,,38.72051050,-9.11686800,,,0,,,
9823,32,Esc. Patricio Prazeres,,38.72128850,-9.11983300,,,0,,,
8711,20,Estr. Oliveiras Baixo (Bombeiros),,38.72617750,-9.19628200,,,0,,,
8701,11,Cruz Oliveiras,,38.72659550,-9.19374900,,,0,,,
3021,1,Alto Damaia,,38.74349150,-9.21751500,,,0,,,
3001,4,Av. Padre Himalaia,,38.74494350,-9.22172000,,,0,,,
3011,5,Pç. Marquês Minas,,38.74379550,-9.22020500,,,0,,,
6131,6,Alto Carvalhão,,38.72592000,-9.16483000,,,0,,,
6121,8,R. Campolide,,38.73060290,-9.16230440,,,0,,,
6111,8,B. Cç. Mestres - Rua 10,,38.72943850,-9.16707100,,,0,,,
6101,32,Campolide,,38.72759450,-9.16177900,,,0,,,
9711,26,Av. D. Vasco Gama,,38.70139950,-9.21678000,,,0,,,
7101,18,Conde Barão - Av. 24 Julho,,38.70630720,-9.14852910,,,0,,,
7111,15,R. Poço Negros,,38.70980050,-9.15172400,,,0,,,
7207,48,Cç. Carriche / Estr. Desvio,,38.78295420,-9.16472260,,,0,,,
7217,8,Estr. Desvio / R. Prof. J. Pinto Correia,,38.78197850,-9.16281900,,,0,,,
5510,33,R. Ouro,,38.71046250,-9.13855800,,,0,,,
8913,2,Olaias (Piscina),,38.73988550,-9.12369100,,,0,,,
8903,2,R. Prof. Mira Fernandes,,38.73806650,-9.12340200,,,0,,,
4211,40,Algés,,38.69895950,-9.22717400,,,0,,,
4201,41,Algés,,38.69860060,-9.22725290,,,0,,,
1207,36,Mq. Pombal - R. Braamcamp,,38.72412760,-9.15064200,,,0,,,
1217,4,R. Sta. Marta,,38.72515250,-9.14619300,,,0,,,
10521,5,Lg. Academia Nacional Belas Artes,,38.70803450,-9.13989600,,,0,,,
2131,8,Cç. Sta. Apolónia,,38.71777350,-9.11901400,,,0,,,
2111,24,Estação Sta. Apolónia,,38.71398900,-9.12192040,,,0,,,
2101,15,Estação Sta. Apolónia,,38.71427240,-9.12283130,,,0,,,
9903,16,Cç. Combro,,38.71096950,-9.14948200,,,0,,,
4307,3,Cruz Quebrada,,38.70196620,-9.25147720,,,0,,,
7520,29,R. Cidade João Belo,,38.76347950,-9.12280500,,,0,,,
8011,4,Terramotos,,38.72111150,-9.16744800,,,0,,,
8001,3,R. Saraiva Carvalho,,38.71531850,-9.16459800,,,0,,,
2217,15,Av. Paulo VI,,38.74804850,-9.10807300,,,0,,,
2207,10,Estação Braço Prata,,38.74709150,-9.10496700,,,0,,,
9001,9,Alto Pina,,38.73755650,-9.12772300,,,0,,,
10723,9,B. Calhau,,38.73927150,-9.17761900,,,0,,,
10722,10,Palácio Marquês Fronteira,,38.74052880,-9.17999820,,,0,,,
10721,8,Palácio Marquês Fronteira,,38.74037730,-9.18019040,,,0,,,
10720,17,Mercado S. Domingos Benfica,,38.74398650,-9.18029140,,,0,,,
10726,11,Pq. Recreativo Alto Serafina,,38.73585550,-9.17964900,,,0,,,
1510,16,Av. Madame Curie,,38.73815350,-9.16184000,,,0,,,
7201,9,Qta. Alcoutins,,38.78034890,-9.17232540,,,0,,,
7211,50,Sr. Roubado,,38.78694650,-9.17041300,,,0,,,
7307,13,Qta. Sto. António,,38.75259760,-9.13045600,,,0,,,
5602,17,R. Conceição / R. Fanqueiros,,38.70994150,-9.13595700,,,0,,,
1201,29,Mq. Pombal - Av. Duque Loulé,,38.72604700,-9.14763100,,,0,,,
1211,5,Mq. Pombal - R. Alexandre Herculano,,38.72291950,-9.14926100,,,0,,,
6602,13,Av. Duque Loulé,,38.72783070,-9.14564440,,,0,,,
4301,2,Cruz Quebrada (Fac. Motricidade Humana),,38.70516550,-9.25252300,,,0,,,
14730,17,Av. Avelino Teixeira Mota (CERCI),,38.75212050,-9.12085200,,,0,,,
2211,18,Av. Paulo VI,,38.74827650,-9.10792900,,,0,,,
2201,16,Fábrica Gás,,38.75030650,-9.09632200,,,0,,,
7602,15,Aeroporto,,38.76895860,-9.12797300,,,0,,,
8111,6,Estrela (Basílica),,38.71363660,-9.16005600,,,0,,,
8101,11,Estrela,,38.71316050,-9.16201900,,,0,,,
2307,15,Gás Portugal,,38.75349460,-9.09613800,,,0,,,
9101,8,Pç. António Sardinha,,38.72588750,-9.13005700,,,0,,,
9111,20,R. Sapadores,,38.72122360,-9.12718100,,,0,,,
9121,5,R. Leite Vasconcelos,,38.71771060,-9.12501100,,,0,,,
9131,12,R. Graça,,38.71921750,-9.12987500,,,0,,,
9207,43,Campo Santana,,38.72290850,-9.14033000,,,0,,,
1602,15,R. Dr. António Granjo,,38.73863650,-9.16458700,,,0,,,
1612,42,Sete Rios,,38.74233350,-9.16787280,,,0,,,
7301,11,Av. Estados Unidos América,,38.74898050,-9.13288600,,,0,,,
10828,8,R. Augusto Pina,,38.74964250,-9.18619400,,,0,,,
10829,8,Pupilos Exército,,38.74669260,-9.18459000,,,0,,,
5904,13,Qta. Conchas,,38.77023850,-9.15989500,,,0,,,
10824,9,R. Prof. Reinaldo Santos,,38.74781050,-9.18849100,,,0,,,
5914,19,Az. Poço Baixo,,38.77262550,-9.17042100,,,0,,,
10825,23,R. Augusto Pina,,38.74949960,-9.18561600,,,0,,,
5924,26,R. Prof. M. Valadares,,38.77558190,-9.16055580,,,0,,,
5934,17,Az. Torre Fato,,38.77010350,-9.17759500,,,0,,,
10826,19,R. Prof. Reinaldo Santos,,38.74735200,-9.18897500,,,0,,,
10827,19,Colégio Militar (Metro),,38.75172850,-9.18759500,,,0,,,
10820,1,Colégio Militar (Metro),,38.75252950,-9.18944300,,,0,,,
5954,26,Paço Lumiar,,38.76940250,-9.17361500,,,0,,,
10821,7,R. Prof. Reinaldo Santos,,38.74702850,-9.18871100,,,0,,,
10822,4,Calhariz - R. Ten. Coronel Ribeiro Reis,,38.74627050,-9.18981900,,,0,,,
8510,2,Amoreiras,,38.72399850,-9.15978300,,,0,,,
8520,7,Amoreiras (C. Comercial),,38.72242140,-9.16115000,,,0,,,
6904,4,Hosp. D. Estefânia,,38.72952750,-9.14035600,,,0,,,
3602,35,Lg. Chelas,,38.74001650,-9.11749900,,,0,,,
3612,12,Bela Vista,,38.74897250,-9.11618100,,,0,,,
1301,2,Av. António Augusto Aguiar,,38.72912750,-9.14931700,,,0,,,
6720,8,Cç. Estrela / R. Borges Carneiro,,38.71237750,-9.15534750,,,0,,,
9510,31,Tv. Artur Lamas,,38.70011950,-9.19182500,,,0,,,
7904,4,Moscavide Centro - R. Franc. M. Beato,,38.77963450,-9.10443000,,,0,,,
2311,36,Av. Inf. D. Henrique (Centieira),,38.75949750,-9.10331500,,,0,,,
2301,34,Av. Mar. Gomes Costa (Universidade),,38.75731360,-9.10866200,,,0,,,
7720,16,Pç. Casas Novas,,38.77255450,-9.11368600,,,0,,,
7710,9,Av. Berlim / Av. Cidade Luanda,,38.76838750,-9.11160900,,,0,,,
8201,23,Alfândega (Terminal Cruzeiros),,38.71059560,-9.12730700,,,0,,,
10927,8,R. Pedralvas,,38.75392760,-9.20617600,,,0,,,
10926,23,R. Pedralvas,,38.75397030,-9.20609250,,,0,,,
10921,24,Benfica - Av. Grão Vasco,,38.75013450,-9.20322900,,,0,,,
10920,2,Benfica - Av. Grão Vasco,,38.74993250,-9.20304400,,,0,,,
3301,5,R. Beneficência (Rego),,38.74168150,-9.15616600,,,0,,,
3311,10,Av. Álvaro Pais,,38.74533150,-9.15241300,,,0,,,
8317,13,Cç. Grilo,,38.73000150,-9.10869900,,,0,,,
8307,13,Al. Beato,,38.73309560,-9.10553500,,,0,,,
9201,20,Paço Rainha,,38.72362150,-9.13774200,,,0,,,
9211,10,Campo Santana,,38.72365450,-9.13984300,,,0,,,
1904,10,Campo Pequeno - Av. Defensores Chaves,,38.74179050,-9.14423900,,,0,,,
1914,11,Campo Pequeno - Av. Berna,,38.74125160,-9.14793500,,,0,,,
1710,12,Pç. José Fontana,,38.72953160,-9.14356300,,,0,,,
2720,14,R. C (B. Liberdade),,38.73534750,-9.17172200,,,0,,,
2710,23,Tarujo,,38.73479160,-9.16516000,,,0,,,
8602,18,Av. Ceuta (Viveiros),,38.72346650,-9.17489500,,,0,,,
3720,16,Av. Paulo VI / R. José Patrocínio,,38.74436650,-9.11092400,,,0,,,
3710,14,Av. João Paulo II,,38.74737160,-9.11044900,,,0,,,
9602,33,Cç. Galvão,,38.70029650,-9.20304600,,,0,,,
8311,29,Av. Inf. D. Henrique (Doca Xabregas),,38.72898150,-9.10701700,,,0,,,
8301,10,Ponte Xabregas,,38.72626850,-9.11186300,,,0,,,
8321,31,Mercado Xabregas,,38.72778150,-9.11467600,,,0,,,
24384,1,ISEL,,38.75667350,-9.11323500,,,0,,,
24385,27,R. Tomás Alcaide,,38.75281050,-9.11032100,,,0,,,
24386,6,R. Tomás Alcaide,,38.75300050,-9.11030800,,,0,,,
24387,28,R. Manuel Teixeira Gomes,,38.75174550,-9.10948500,,,0,,,
24380,31,R. Eng. Rodrigues Carvalho,,38.75492250,-9.11812600,,,0,,,
24381,24,R. Eng. Rodrigues Carvalho,,38.75494260,-9.11794800,,,0,,,
24382,22,Esc. D. Dinis,,38.75253450,-9.11472900,,,0,,,
24383,1,ISEL,,38.75650750,-9.11334600,,,0,,,
24388,5,R. Manuel Teixeira Gomes,,38.75164250,-9.10935900,,,0,,,
24389,29,R. Manuel Teixeira Gomes (Esc. D. Dinis),,38.75204960,-9.11205600,,,0,,,
9301,34,Meia Laranja,,38.71581350,-9.17277700,,,0,,,
17571,16,B. Madre Deus (Escola),,38.73402250,-9.11264200,,,0,,,
17570,2,B. Madre Deus,,38.73192850,-9.11497100,,,0,,,
17573,34,Cç. Teixeira,,38.73567220,-9.11702220,,,0,,,
17572,25,B. Madre Deus (Escola),,38.73384060,-9.11275600,,,0,,,
8914,42,Pç. Sócrates Costa,,38.73504250,-9.12182100,,,0,,,
17575,33,Estr. Chelas,,38.73436100,-9.11717900,,,0,,,
8904,30,Cç. Picheleira,,38.73740750,-9.12421200,,,0,,,
17574,58,B. Madre Deus (Escola),,38.73386450,-9.11253500,,,0,,,
17577,32,R. Gualdim Pais,,38.73125150,-9.11680400,,,0,,,
17576,7,Estr. Chelas,,38.73463150,-9.11729100,,,0,,,
17579,7,Az. Salgada,,38.73638430,-9.11312970,,,0,,,
17578,8,R. Gualdim Pais,,38.73113150,-9.11683900,,,0,,,
9904,5,Cç. Combro,,38.71102650,-9.14983600,,,0,,,
9710,13,R. Alto Duque,,38.70087950,-9.22130000,,,0,,,
14602,2,Portagem (Cristo-Rei),,38.67427850,-9.17331900,,,0,,,
50066,2,Av. José Gomes Ferreira,,38.71489800,-9.23166000,,,0,,,
14601,8,Portagem (Cristo-Rei),,38.67381150,-9.17400000,,,0,,,
50067,36,R. Maria Pia / Estr. Loureiro,,38.71099350,-9.17241400,,,0,,,
50068,23,R. Maria Pia / Estr. Loureiro,,38.71107650,-9.17234400,,,0,,,
50069,39,R. Visconde Santarém,,38.73496350,-9.13994500,,,0,,,
7306,49,R. Guilhermina Suggia,,38.74797850,-9.13246900,,,0,,,
14005,7,Pq. Campismo,,38.72772550,-9.20903200,,,0,,,
14006,32,Pq. Campismo,,38.72792250,-9.20929500,,,0,,,
14007,6,Pq. Campismo (Receção),,38.72455150,-9.20801200,,,0,,,
14008,8,Pq. Campismo,,38.72804050,-9.20935500,,,0,,,
50161,9,Hosp. Forças Armadas,,38.76891250,-9.17424700,,,0,,,
50163,27,Estr. Torre,,38.77430150,-9.15947130,,,0,,,
14703,26,R. Luis Cristino Silva,,38.75811460,-9.12292400,,,0,,,
50162,3,Estr. Torre,,38.77416150,-9.15975000,,,0,,,
14702,30,R. Adães Bermudes,,38.75620250,-9.12071100,,,0,,,
50164,26,Rot. Cabo Ruivo,,38.75598090,-9.10427090,,,0,,,
14701,25,R. Adães Bermudes,,38.75675820,-9.12165040,,,0,,,
14707,28,Esc. Damião Góis,,38.75739250,-9.12654100,,,0,,,
50169,4,Restelo,,38.71272730,-9.21078230,,,0,,,
14706,28,B. Loios,,38.75911950,-9.12479800,,,0,,,
14705,27,B. Loios,,38.75925350,-9.12471000,,,0,,,
50168,14,Estr. Pedro Teixeira,,38.71361450,-9.20365700,,,0,,,
14704,29,R. Luis Cristino Silva,,38.75790050,-9.12318000,,,0,,,
14708,27,Esc. Damião Góis,,38.75761950,-9.12637100,,,0,,,
50464,20,Centro Saúde Tílias,,38.74033450,-9.17190800,,,0,,,
50466,12,Av. Sérgio Vieira Mello,,38.78099350,-9.14908200,,,0,,,
50467,11,R. Barão Sabrosa / R. Baldaques,,38.73321350,-9.12834500,,,0,,,
50460,15,Mercado Ribeira,,38.70708330,-9.14460560,,,0,,,
2336,6,R. Almada Negreiros,,38.76055650,-9.10597600,,,0,,,
50461,2,Cais Sodré,,38.70665550,-9.14327500,,,0,,,
2316,23,Gás Portugal,,38.75389450,-9.09599600,,,0,,,
50462,22,R. A. A. Machado / R. S. Tomás Aquino,,38.75280960,-9.16791100,,,0,,,
50463,24,Boa Hora,,38.70293540,-9.19476200,,,0,,,
50468,15,R. Barão Sabrosa / R. Baldaques,,38.73383450,-9.12841100,,,0,,,
50469,26,Alameda D. A. Henriques,,38.73655150,-9.13352300,,,0,,,
50363,10,R. Cidade Luanda,,38.79048150,-9.14475700,,,0,,,
50362,9,R. Amoreiras,,38.72386750,-9.15962100,,,0,,,
50361,7,Rato,,38.72045150,-9.15539200,,,0,,,
50360,20,Av. Cidade Praga (Lispolis),,38.76627810,-9.18322710,,,0,,,
14105,2,R. Rio Tejo,,38.77097350,-9.18896900,,,0,,,
50367,8,R. Cruzeiro / Tv. José Fernandes,,38.70803450,-9.19272500,,,0,,,
14104,41,Serra Luz,,38.77197350,-9.19020000,,,0,,,
50366,1,Boa Hora - R. Guarda Jóias,,38.70486050,-9.19381100,,,0,,,
14107,1,B. Padre Cruz,,38.76953850,-9.18971000,,,0,,,
3306,26,B. Santos,,38.74533850,-9.15702970,,,0,,,
50365,5,Av. Cidade Praga (Lispolis),,38.76642780,-9.18397110,,,0,,,
14106,42,R. Rio Tejo,,38.77107250,-9.18923600,,,0,,,
14101,4,Estr. Militar (Escorpiões),,38.77099450,-9.19357800,,,0,,,
14103,3,Serra Luz,,38.77222250,-9.19073400,,,0,,,
50369,6,Tv. Fornos / R. Cruzeiro,,38.70624660,-9.18976600,,,0,,,
14102,40,Estr. Militar (Escorpiões),,38.77095350,-9.19339900,,,0,,,
50368,9,R. Cruzeiro,,38.70920650,-9.19462200,,,0,,,
14109,10,Qta. Olival (C. Triagem),,38.77703760,-9.17449400,,,0,,,
14108,7,B. Padre Cruz,,38.76954040,-9.18931580,,,0,,,
521,40,Pç. Chile,,38.73452750,-9.13502000,,,0,,,
522,5,Pç. Chile,,38.73314450,-9.13249200,,,0,,,
10838,17,R. Carolina M. Vasc./ R. José P. Chaves,,38.74446240,-9.19225190,,,0,,,
10835,25,Esc. Pedro Santarém,,38.74978550,-9.19425600,,,0,,,
10830,18,Pupilos Exército,,38.74680550,-9.18461300,,,0,,,
10831,20,R. Carolina Michaelis Vasconcelos,,38.74446150,-9.19417100,,,0,,,
10832,24,Colégio Militar (Metro),,38.75260750,-9.18956600,,,0,,,
10833,10,Colégio Militar (Metro),,38.75279350,-9.18972300,,,0,,,
50564,1,Estação Roma-Areeiro,,38.74550950,-9.13627000,,,0,,,
50567,3,R. Augusto Gil,,38.74315660,-9.14048800,,,0,,,
14307,4,Miraflores Norte,,38.71417800,-9.22734200,,,0,,,
14306,31,Al. Fernão Lopes (Estação Miraflores),,38.71500250,-9.22943300,,,0,,,
50561,13,Cç. S. Vicente,,38.71349520,-9.12868340,,,0,,,
14305,3,Al. Fernão Lopes (Estação Miraflores),,38.71463350,-9.22922100,,,0,,,
50563,2,R. João Vilarett,,38.74516350,-9.14104300,,,0,,,
50562,24,Cç. Duque Lafões / Trav. Olival,,38.73324100,-9.10674900,,,0,,,
50569,15,R. Sarmento Beires,,38.74260000,-9.12757000,,,0,,,
50568,13,R. João Silva,,38.74257000,-9.12935000,,,0,,,
14309,35,Miraflores,,38.71326000,-9.22529000,,,0,,,
14308,30,Miraflores Norte,,38.71445500,-9.22695300,,,0,,,
14804,13,Graça,,38.71727050,-9.12989400,,,0,,,
8316,5,Cç. Grilo,,38.72978550,-9.10860400,,,0,,,
14805,8,Lg. Graça,,38.71601260,-9.13060200,,,0,,,
8306,24,Cç. Grilo,,38.73017560,-9.10805000,,,0,,,
14801,14,Voz Operário,,38.71507150,-9.12872500,,,0,,,
14802,14,Voz Operário,,38.71503350,-9.12882600,,,0,,,
14803,15,Graça,,38.71722450,-9.12976500,,,0,,,
14908,4,Aquário Vasco Gama,,38.69926560,-9.23751200,,,0,,,
14905,7,Dafundo,,38.70013960,-9.24044200,,,0,,,
14904,6,Dafundo - R. 1. Maio,,38.70073150,-9.24473900,,,0,,,
16004,43,Fonte Pipa,,38.79599650,-9.14936300,,,0,,,
14907,8,Aquário Vasco Gama,,38.69920610,-9.23753660,,,0,,,
16005,3,Fonte Pipa,,38.79594650,-9.14951300,,,0,,,
14906,5,Dafundo,,38.70024150,-9.24064600,,,0,,,
14901,5,R. Bombeiros Voluntários Dafundo,,38.70023450,-9.24649800,,,0,,,
14903,6,Dafundo - R. 1. Maio,,38.70066250,-9.24430700,,,0,,,
16001,1,Fetais,,38.79809170,-9.14542120,,,0,,,
14902,7,R. Bombeiros Voluntários Dafundo,,38.70034890,-9.24715830,,,0,,,
16002,44,Az. Fetais,,38.79858680,-9.14757740,,,0,,,
16003,2,Az. Fetais,,38.79869650,-9.14764600,,,0,,,
24390,4,R. Manuel Teixeira Gomes (Esc. D. Dinis),,38.75152760,-9.11186780,,,0,,,
7308,33,Av. Alm. Gago Coutinho / Av. EUA,,38.74799760,-9.13119000,,,0,,,
17567,14,R. Marquês Olhão,,38.73135250,-9.11165800,,,0,,,
17566,4,R. Nicolau Tolentino,,38.73101650,-9.10965000,,,0,,,
17569,15,B. Madre Deus,,38.73204250,-9.11439500,,,0,,,
17568,3,R. Marquês Olhão,,38.73144400,-9.11245240,,,0,,,
16307,13,Qta. Francelha Baixo,,38.78822670,-9.12369260,,,0,,,
16306,5,Qta. Francelha Cima,,38.78520460,-9.12431620,,,0,,,
16305,12,Qta. Francelha Cima,,38.78586050,-9.12383000,,,0,,,
16304,6,Rot. Encarnação,,38.78392050,-9.12478700,,,0,,,
16303,11,Rot. Encarnação,,38.78355950,-9.12453100,,,0,,,
16302,15,Rot. Encarnação,,38.78264650,-9.12520900,,,0,,,
16301,12,Rot. Encarnação,,38.78236450,-9.12599900,,,0,,,
16309,14,Prior Velho,,38.79011050,-9.12388300,,,0,,,
16308,4,Qta. Francelha Baixo,,38.78830250,-9.12388300,,,0,,,
18125,3,Av. Laranjeiras,,38.73735330,-9.22393120,,,0,,,
18124,22,Av. Laranjeiras,,38.73743740,-9.22385890,,,0,,,
18127,2,Av. Qta. Grande,,38.73962850,-9.22388500,,,0,,,
18126,23,Av. Qta. Grande,,38.73951150,-9.22400600,,,0,,,
10401,11,Caselas,,38.71695060,-9.21316200,,,0,,,
18121,5,Av. Laranjeiras / Av. Qta. Grande,,38.73718250,-9.22133600,,,0,,,
10402,21,Fonte Caselas,,38.71579450,-9.21469900,,,0,,,
18120,20,Av. Laranjeiras / Av. Qta. Grande,,38.73735190,-9.22128860,,,0,,,
10403,12,Fonte Caselas,,38.71571250,-9.21479700,,,0,,,
18123,4,Av. Moinhos,,38.73680250,-9.22267300,,,0,,,
10404,22,Caselas,,38.71699420,-9.21288870,,,0,,,
18122,21,Av. Moinhos,,38.73694250,-9.22257400,,,0,,,
2328,35,Rot. Cabo Ruivo,,38.75647330,-9.10297350,,,0,,,
10405,10,Estr. Queluz,,38.71751550,-9.20987600,,,0,,,
10406,12,Estr. Queluz,,38.71745850,-9.20953100,,,0,,,
18129,17,Alfragide (Qta. Grande),,38.73549550,-9.21896620,,,0,,,
18128,24,Alfragide Norte,,38.73945760,-9.22150600,,,0,,,
10602,14,Ascensor Glória,,38.71449950,-9.14435100,,,0,,,
10601,5,Ascensor Glória,,38.71490850,-9.14447500,,,0,,,
10606,12,Príncipe Real,,38.71665450,-9.14851200,,,0,,,
10607,24,R. Escola Politécnica,,38.71804650,-9.15182480,,,0,,,
10604,13,S. Pedro Alcântara,,38.71545450,-9.14509000,,,0,,,
10605,23,Príncipe Real,,38.71656950,-9.14811000,,,0,,,
10608,4,R. Escola Politécnica,,38.71753450,-9.15104300,,,0,,,
10609,7,Príncipe Real,,38.71651720,-9.14818140,,,0,,,
17581,17,R. Dr. Manuel Espírito Santo,,38.73505750,-9.11402000,,,0,,,
17580,24,Az. Salgada,,38.73609250,-9.11322700,,,0,,,
10501,3,Pç. Luis Camões (B. Alto),,38.71114530,-9.14288270,,,0,,,
10503,4,Lg. Trindade Coelho,,38.71317850,-9.14333000,,,0,,,
10502,44,Pç. Luis Camões (B. Alto),,38.70993950,-9.14315200,,,0,,,
10504,43,Lg. Trindade Coelho,,38.71254750,-9.14320900,,,0,,,
10004,11,Lapa,,38.71098150,-9.15847200,,,0,,,
10006,10,R. S. Domingos à Lapa,,38.70930250,-9.16170900,,,0,,,
10007,22,R. Garcia Orta,,38.70726650,-9.16140100,,,0,,,
10001,11,R. Santana à Lapa / R. Buenos Aires,,38.71032950,-9.16140900,,,0,,,
10003,10,Lapa,,38.71120250,-9.15832500,,,0,,,
10008,15,R. Garcia Orta,,38.70754950,-9.16135900,,,0,,,
10009,23,R. S. João Mata,,38.70788560,-9.15908700,,,0,,,
10703,10,B. Novo,,38.74433450,-9.17873800,,,0,,,
10702,17,S. Domingos Benfica,,38.74569950,-9.18172100,,,0,,,
10701,9,S. Domingos Benfica,,38.74555560,-9.18175600,,,0,,,
10707,24,Esc. Delfim Santos,,38.74815750,-9.18095400,,,0,,,
10706,15,R. Duarte Galvão,,38.74361060,-9.17552000,,,0,,,
10705,11,R. Duarte Galvão,,38.74359260,-9.17613400,,,0,,,
10704,16,B. Novo,,38.74459170,-9.17926760,,,0,,,
10709,27,Alto Moinhos (Metro),,38.74935150,-9.18023300,,,0,,,
10708,7,Esc. Delfim Santos,,38.74848150,-9.18165200,,,0,,,
50070,2,Av. Dr. Augusto Castro,,38.75372450,-9.11422700,,,0,,,
50071,27,Az. Veigas,,38.73657450,-9.10778800,,,0,,,
50072,3,Estr. Marvila / Az. Alfinetes,,38.73814760,-9.10731000,,,0,,,
50074,6,R. Rosa,,38.71270450,-9.14531100,,,0,,,
50075,5,Príncipe Real,,38.71589270,-9.14828040,,,0,,,
50076,7,R. Rosa / Trav. S. Pedro,,38.71490150,-9.14589300,,,0,,,
50079,23,Centro Saúde Olivais,,38.77244650,-9.11794000,,,0,,,
10206,23,Cova Moura,,38.70702150,-9.16762700,,,0,,,
10207,21,Pç. Armada,,38.70497260,-9.17029300,,,0,,,
10204,24,Av. Infante Santo,,38.70380150,-9.16823500,,,0,,,
10205,8,Cova Moura,,38.70714250,-9.16739900,,,0,,,
10202,12,Av. Infante Santo,,38.70350040,-9.16772590,,,0,,,
10203,7,Av. Infante Santo,,38.70418750,-9.16795400,,,0,,,
10201,15,Av. Infante Santo,,38.70340350,-9.16701900,,,0,,,
8308,23,Al. Beato,,38.73275450,-9.10592100,,,0,,,
10208,22,Pç. Armada,,38.70529090,-9.17066850,,,0,,,
10209,22,Av. Infante Santo,,38.70458350,-9.16736200,,,0,,,
10105,20,Fonte Santa,,38.71166030,-9.16933890,,,0,,,
10104,21,Av. Inf. Santo / R. Santana à Lapa,,38.71139450,-9.16436700,,,0,,,
10107,19,Esc. Josefa Óbidos,,38.71272750,-9.16694700,,,0,,,
10106,8,Fonte Santa,,38.71199050,-9.16862500,,,0,,,
10101,9,Av. Inf. Santo (Gasómetro),,38.70986450,-9.16585600,,,0,,,
10103,10,Av. Inf. Santo / R. Santana à Lapa,,38.71202150,-9.16333900,,,0,,,
10102,22,Av. Inf. Santo (Gasómetro),,38.70942850,-9.16667300,,,0,,,
10109,3,Av. Inf. Santo / R. Santana à Lapa,,38.71184710,-9.16385080,,,0,,,
10108,9,Esc. Josefa Óbidos,,38.71267960,-9.16646700,,,0,,,
50276,13,R. Maluda,,38.79200550,-9.15313500,,,0,,,
50274,7,Miraflores,,38.71401460,-9.22545760,,,0,,,
50275,3,R. Maluda,,38.79225150,-9.15326100,,,0,,,
11620,6,Torrinha,,38.78811650,-9.15861000,,,0,,,
50278,36,Alameda D. A. Henriques,,38.73692750,-9.13634700,,,0,,,
50171,22,Estr. Benfica (Mercado),,38.75287360,-9.20618300,,,0,,,
50170,21,Estr. Benfica (Mercado),,38.75199350,-9.20583000,,,0,,,
50173,22,Esc. Marvila,,38.74031350,-9.10983000,,,0,,,
14713,30,R. Ferreira Castro,,38.75416150,-9.12488000,,,0,,,
50172,19,Esc. Marvila,,38.73991350,-9.11060800,,,0,,,
14712,25,R. Ferreira Castro,,38.75447650,-9.12496100,,,0,,,
50175,21,B. Alfinetes,,38.74185550,-9.10844700,,,0,,,
14711,24,B. Flamenga,,38.75285550,-9.12342900,,,0,,,
50174,20,R. A. José Pessoa,,38.74159950,-9.10787800,,,0,,,
14710,26,Colégio Valsassina,,38.75545350,-9.12636000,,,0,,,
50177,14,R. Tomás Fonseca / R. A. A. Machado,,38.75598050,-9.17085700,,,0,,,
14717,32,Pq. Bela Vista,,38.75027050,-9.12388500,,,0,,,
50176,7,Piscina Municipal Ameixoeira,,38.78581170,-9.15980870,,,0,,,
14716,22,R. Pedro Cruz,,38.75001680,-9.11985940,,,0,,,
50178,3,Prior Velho,,38.79019150,-9.12312100,,,0,,,
14715,31,B. Flamenga,,38.75275750,-9.12359300,,,0,,,
14714,23,Pq. Bela Vista,,38.75058150,-9.12391200,,,0,,,
10307,8,R. Sítio,,38.71089050,-9.19339900,,,0,,,
10306,51,R. Cruzeiro,,38.70950350,-9.19471000,,,0,,,
10305,19,R. Cruzeiro,,38.70965950,-9.19494500,,,0,,,
10304,6,Lg. Ajuda (Palácio),,38.70755850,-9.19615800,,,0,,,
10303,20,Lg. Ajuda (Palácio),,38.70775450,-9.19641600,,,0,,,
10302,18,Cç. Ajuda (GNR),,38.70644250,-9.19905400,,,0,,,
10301,4,Cç. Ajuda (GNR),,38.70637760,-9.19919000,,,0,,,
10309,7,Casalinho Ajuda,,38.70919350,-9.19199700,,,0,,,
50475,26,Pç. José Fontana,,38.73041150,-9.14364400,,,0,,,
10308,5,R. Sítio,,38.71055350,-9.19344200,,,0,,,
50476,13,R. A. A. Machado / R. Tomás Fonseca,,38.75543250,-9.16956100,,,0,,,
50477,4,Estação Braço Prata,,38.74696950,-9.10335000,,,0,,,
50471,1,Estr. Luz,,38.75494160,-9.17595900,,,0,,,
50472,12,Estação Sete Rios,,38.74026450,-9.16719900,,,0,,,
50473,32,Estação Roma-Areeiro,,38.74555850,-9.13555400,,,0,,,
7404,9,Av. D. Rodrigo Cunha,,38.75485150,-9.13421700,,,0,,,
50478,11,Av. Cidade Bratislava,,38.75026550,-9.11705500,,,0,,,
50479,14,Igreja Sta. Isabel,,38.71814950,-9.15818000,,,0,,,
50373,21,R. Cruz Alcântara,,38.70905550,-9.17436100,,,0,,,
50372,28,Centro Saúde Ajuda,,38.70552050,-9.19430800,,,0,,,
50371,5,R. D. João Castro,,38.70504450,-9.18989700,,,0,,,
50370,24,Tv. Memória,,38.70256650,-9.20084900,,,0,,,
50377,7,Travessa Giestal,,38.70310750,-9.19100100,,,0,,,
14114,25,R. Rio Minho,,38.77134160,-9.18644500,,,0,,,
50376,11,R. João Barros,,38.70574850,-9.18489700,,,0,,,
50375,25,Av. Ceuta,,38.70723050,-9.17415800,,,0,,,
14116,12,Cemitério Carnide,,38.77305150,-9.18362100,,,0,,,
50374,24,R. Alvito,,38.70750250,-9.17518300,,,0,,,
14111,5,Mal Penteada,,38.76879750,-9.19580600,,,0,,,
14110,39,Mal Penteada,,38.76893250,-9.19549100,,,0,,,
50379,6,R. Giestal,,38.70030050,-9.19083200,,,0,,,
14112,15,B. Padre Cruz,,38.76958950,-9.18963000,,,0,,,
50378,35,Travessa Giestal,,38.70172250,-9.19082700,,,0,,,
14118,11,Vale Forno,,38.77568750,-9.17834700,,,0,,,
12401,23,R. Gregório Lopes,,38.71156750,-9.21485900,,,0,,,
12402,9,R. Gregório Lopes,,38.71187350,-9.21416300,,,0,,,
12403,2,Restelo - R. Antão Gonçalves,,38.70892750,-9.21434600,,,0,,,
12404,8,Restelo - Av. Descobertas,,38.70981850,-9.21498000,,,0,,,
12405,3,Restelo (Torres) - R. Antão Gonçalves,,38.70919450,-9.21145400,,,0,,,
12406,50,Restelo (Torres) - R. Antão Gonçalves,,38.70934560,-9.21156600,,,0,,,
12407,24,Restelo - Av. Descobertas,,38.70969850,-9.21545400,,,0,,,
12408,4,Restelo,,38.71132050,-9.21036900,,,0,,,
12409,1,Restelo - Av. Descobertas,,38.70898150,-9.21340060,,,0,,,
1404,21,S. Sebastião,,38.73351350,-9.15338500,,,0,,,
1414,31,S. Sebastião,,38.73478650,-9.15236000,,,0,,,
10808,30,Colégio Militar (Metro),,38.75245560,-9.18902670,,,0,,,
10809,20,Estádio Luz,,38.75439560,-9.18512200,,,0,,,
10804,2,Calhariz,,38.74959350,-9.19131300,,,0,,,
10805,18,R. Prof. Reinaldo Santos,,38.74769150,-9.18836300,,,0,,,
10806,23,Calhariz,,38.74911100,-9.19024130,,,0,,,
10807,27,Calhariz,,38.74864690,-9.19116690,,,0,,,
10801,5,Esc. Pedro Santarém,,38.74980950,-9.19436200,,,0,,,
4506,2,Sul e Sueste,,38.70811960,-9.13327700,,,0,,,
10802,21,Esc. Pedro Santarém,,38.75013470,-9.19558500,,,0,,,
10803,6,Calhariz (Escola),,38.74826750,-9.19265100,,,0,,,
50577,7,Ajuda (Associação Desportiva),,38.71194360,-9.20385190,,,0,,,
14312,28,Esc. Miraflores,,38.71138800,-9.22572630,,,0,,,
14311,36,Esc. Miraflores,,38.71107960,-9.22618600,,,0,,,
14310,29,Miraflores,,38.71324100,-9.22508400,,,0,,,
2404,40,Oceanário Lisboa,,38.76126750,-9.09612300,,,0,,,
12602,5,RALIS,,38.78090550,-9.12009000,,,0,,,
12603,19,Qta. Morgado,,38.77937350,-9.12012700,,,0,,,
12601,10,RALIS,,38.78164750,-9.11941100,,,0,,,
12607,7,Portela - Av. República,,38.78354050,-9.11561700,,,0,,,
12604,8,Qta. Morgado,,38.77912850,-9.12016700,,,0,,,
12605,6,RALIS,,38.78308730,-9.11738390,,,0,,,
12608,40,Portela - Av. República,,38.78361450,-9.11626600,,,0,,,
12501,34,Fábrica Braço Prata,,38.74462060,-9.10101700,,,0,,,
12502,1,Poço Bispo,,38.74246390,-9.10118620,,,0,,,
12505,14,Beato,,38.73490550,-9.10469900,,,0,,,
12504,19,Fábrica Braço Prata,,38.74494350,-9.10113900,,,0,,,
6506,20,Estefânia - Av. Casal Ribeiro,,38.73190250,-9.14200200,,,0,,,
12506,22,Beato,,38.73468060,-9.10511600,,,0,,,
12509,32,Palácio Mitra,,38.73967750,-9.10286400,,,0,,,
11321,34,Hosp. Júlio Matos,,38.75635050,-9.14694500,,,0,,,
10909,27,Estr. Arneiros,,38.75420160,-9.19776700,,,0,,,
10908,4,Estr. Benfica / Av. Gomes Pereira,,38.74929550,-9.19766800,,,0,,,
10905,4,Estr. Benfica / Av. Gomes Pereira,,38.75064780,-9.19846870,,,0,,,
10904,23,Igreja Benfica,,38.75083150,-9.20173200,,,0,,,
12004,28,R. Luis Camões,,38.70452650,-9.18304400,,,0,,,
10907,24,Estr. Benfica / Av. Gomes Pereira,,38.75013460,-9.19746700,,,0,,,
12005,3,R. Luis Camões,,38.70410250,-9.18276700,,,0,,,
10906,22,Estr. Benfica / Av. Gomes Pereira,,38.75078450,-9.19861400,,,0,,,
10901,4,Estr. Benfica (Mercado),,38.75201750,-9.20551100,,,0,,,
12006,11,Alto Sto. Amaro,,38.70511750,-9.18765300,,,0,,,
12007,10,Alto Sto. Amaro,,38.70489550,-9.18742400,,,0,,,
10903,3,Igreja Benfica,,38.75061160,-9.20145100,,,0,,,
7506,9,Av. Mar. Gomes Costa (Qta. Teresinhas),,38.76170760,-9.12208700,,,0,,,
7516,16,Pç. Aeroporto,,38.76277860,-9.12900300,,,0,,,
10902,21,Estr. Benfica (Mercado),,38.75199190,-9.20523880,,,0,,,
12001,38,Alto Sto. Amaro,,38.70236560,-9.18808000,,,0,,,
12002,29,Jardim Alto Sto. Amaro,,38.70403840,-9.18573890,,,0,,,
12003,2,Jardim Alto Sto. Amaro,,38.70447750,-9.18481000,,,0,,,
12008,12,R. Aliança Operária,,38.70440650,-9.18958800,,,0,,,
12703,33,Cç. Palma Baixo,,38.74628950,-9.16789000,,,0,,,
12702,5,Cç. Palma Baixo / Estr. Laranjeiras,,38.74507360,-9.16862400,,,0,,,
12707,14,Estr. Laranjeiras,,38.74555750,-9.16934100,,,0,,,
12706,3,Universidade Católica,,38.74820250,-9.16541500,,,0,,,
12705,34,Universidade Católica,,38.74804180,-9.16517630,,,0,,,
12704,4,Cç. Palma Baixo,,38.74688760,-9.16788200,,,0,,,
12709,15,Laranjeiras (Metro),,38.74756050,-9.17091900,,,0,,,
12708,19,Estr. Laranjeiras,,38.74526250,-9.16930900,,,0,,,
12206,11,Igreja Encarnação,,38.77357150,-9.11866600,,,0,,,
12207,37,R. Lojistas,,38.77293550,-9.11535600,,,0,,,
12204,12,Encarnação,,38.77108150,-9.12187300,,,0,,,
12205,44,Igreja Encarnação,,38.77269750,-9.11837500,,,0,,,
12202,13,Encarnação (Bombeiros),,38.76961350,-9.12313400,,,0,,,
12203,43,Encarnação,,38.77080960,-9.12155200,,,0,,,
1506,19,Pç. Espanha,,38.73838600,-9.15848600,,,0,,,
12201,42,Encarnação (Bombeiros),,38.77019550,-9.12313700,,,0,,,
12208,17,R. Lojistas,,38.77406450,-9.11677700,,,0,,,
12209,20,Encarnação (Bombeiros),,38.76945350,-9.12316700,,,0,,,
5810,16,Campo Grande Norte,,38.75972750,-9.15582500,,,0,,,
12105,3,Calvário,,38.70539150,-9.17630600,,,0,,,
12104,28,R. Leão Oliveira,,38.70464220,-9.17847830,,,0,,,
5840,20,R. Agostinho Neto,,38.76174650,-9.15411300,,,0,,,
12107,2,Estação Sto. Amaro,,38.70302650,-9.17977900,,,0,,,
12101,5,Calvário,,38.70455250,-9.17649700,,,0,,,
12103,28,R. Lusíadas / R. Leão Oliveira,,38.70574550,-9.17818700,,,0,,,
12102,26,Calvário,,38.70465650,-9.17656600,,,0,,,
12108,25,Estação Sto. Amaro,,38.70198850,-9.18103700,,,0,,,
5604,10,R. Conceição,,38.70956290,-9.13747880,,,0,,,
8414,20,R. Cidade Bissau (Metro),,38.76035250,-9.11166900,,,0,,,
8404,31,Olivais Sul,,38.76404350,-9.11902700,,,0,,,
8424,23,Cemitério Olivais,,38.76242950,-9.10979700,,,0,,,
6820,6,R. Braamcamp,,38.72168550,-9.15156700,,,0,,,
6810,7,Rato,,38.72003050,-9.15511800,,,0,,,
9404,22,Tv. Horta Navia,,38.70891950,-9.17201900,,,0,,,
6604,31,R. Bernardim Ribeiro,,38.72498650,-9.14418000,,,0,,,
9424,23,Travessa Sebeiro,,38.70850460,-9.17592200,,,0,,,
12307,8,R. Capitão-Ten. Oliveira Carmo,,38.77604650,-9.11353800,,,0,,,
12306,47,R. Alf. Barrilaro Ruas,,38.77706750,-9.11589500,,,0,,,
7810,6,Pç. José Queirós,,38.77442250,-9.10603100,,,0,,,
12305,9,R. Alf. Barrilaro Ruas,,38.77716350,-9.11616300,,,0,,,
12304,15,B. Encarnação,,38.77475250,-9.11419000,,,0,,,
12303,39,B. Encarnação,,38.77534250,-9.11337900,,,0,,,
12302,7,Olivais Norte,,38.77507450,-9.11140800,,,0,,,
12301,49,Olivais Norte,,38.77537550,-9.11076400,,,0,,,
12309,14,Olivais Norte,,38.77442450,-9.11116700,,,0,,,
12308,48,R. Capitão-Ten. Oliveira Carmo,,38.77608950,-9.11382800,,,0,,,
7604,14,Av. Berlim (Aeroporto),,38.77015250,-9.12735000,,,0,,,
24365,7,R. Capitão-Mor Lopes Sequeira,,38.75442550,-9.10935100,,,0,,,
24366,26,R. Capitão-Mor Lopes Sequeira,,38.75438950,-9.10875500,,,0,,,
24367,20,ISEL,,38.75575750,-9.11372400,,,0,,,
24368,9,ISEL,,38.75559550,-9.11282300,,,0,,,
1810,4,Av. República,,38.73846650,-9.14610800,,,0,,,
1604,2,Sete Rios,,38.74165100,-9.16780960,,,0,,,
1614,1,Sete Rios,,38.74200870,-9.16847190,,,0,,,
12808,13,Qta. Inglesinhos,,38.76317160,-9.18058000,,,0,,,
2810,19,B. Calhariz Benfica,,38.74209550,-9.20009600,,,0,,,
12804,27,Lg. Luz,,38.76029960,-9.18287700,,,0,,,
12805,19,Av. Norton Matos (Torres Lisboa),,38.75782680,-9.17536910,,,0,,,
12806,22,Av. Norton Matos (Torres Lisboa),,38.75747720,-9.17519490,,,0,,,
12807,12,Av. Cidade Praga (Lispolis),,38.76547650,-9.18264400,,,0,,,
12801,18,Qta. Luz,,38.75726950,-9.18540700,,,0,,,
12802,29,Qta. Luz,,38.75716650,-9.18568000,,,0,,,
12803,20,Lg. Luz,,38.76001650,-9.18275000,,,0,,,
5902,14,Av. Rainha D. Leonor,,38.76767050,-9.15837900,,,0,,,
5912,6,Lumiar - Av. Padre Cruz,,38.77471160,-9.16313700,,,0,,,
5922,7,Ameixoeira (Metro),,38.77962850,-9.15979000,,,0,,,
5932,18,INETI,,38.76917250,-9.17923300,,,0,,,
16310,1,Prior Velho,,38.79020950,-9.12434900,,,0,,,
5952,12,R. Fernando Lopes Graça,,38.77014950,-9.16901500,,,0,,,
3820,7,Corpo Santo,,38.70727050,-9.14133620,,,0,,,
3810,50,Cais Sodré,,38.70578450,-9.14311700,,,0,,,
8516,12,R. Amoreiras,,38.72334450,-9.15941200,,,0,,,
6902,3,Gomes Freire,,38.72592360,-9.14062800,,,0,,,
3604,36,Lg. Broma,,38.74234150,-9.11677800,,,0,,,
3614,38,Av. Carlos Pinhão,,38.74296560,-9.11759460,,,0,,,
9506,28,Hosp. Egas Moniz,,38.69843560,-9.18835910,,,0,,,
7902,33,Moscavide Centro,,38.77990350,-9.10247800,,,0,,,
7912,29,Estr. Moscavide,,38.77277850,-9.09996600,,,0,,,
6016,16,R. Melo Antunes,,38.77904160,-9.14478600,,,0,,,
6006,18,Campo Amoreiras,,38.78544650,-9.14319600,,,0,,,
12908,13,Pólo Universitário Ajuda - Estr. Marcos,,38.71332750,-9.20087000,,,0,,,
12905,13,Caramão (Ajuda),,38.71444950,-9.20455800,,,0,,,
12904,9,B. Ajuda (Escola),,38.71172460,-9.20111100,,,0,,,
12907,17,Estr. Marcos,,38.71340850,-9.20265700,,,0,,,
12906,18,Caramão (Ajuda),,38.71457850,-9.20451900,,,0,,,
12901,29,Ajuda,,38.70913150,-9.19998200,,,0,,,
12903,28,B. Ajuda (Escola),,38.71165050,-9.20123400,,,0,,,
12902,8,Ajuda,,38.70940550,-9.19992900,,,0,,,
7006,11,Esc. Nuno Gonçalves,,38.72719250,-9.12839000,,,0,,,
7016,6,R. Cesário Verde,,38.73003860,-9.13034600,,,0,,,
1902,6,Campo Pequeno - Av. República,,38.74189750,-9.14698000,,,0,,,
2902,13,R. Prof. Jorge Silva Horta,,38.74584730,-9.20476310,,,0,,,
10511,17,Calhariz (Bica),,38.71081350,-9.14600100,,,0,,,
10510,3,Calhariz (Bica),,38.71079850,-9.14532000,,,0,,,
10513,14,Pç. Luis Camões (B. Alto),,38.71053750,-9.14382400,,,0,,,
10512,2,Pç. Luis Camões (B. Alto),,38.71078550,-9.14359100,,,0,,,
10515,2,Chiado,,38.70983360,-9.14248550,,,0,,,
10514,13,Chiado,,38.71042150,-9.14207300,,,0,,,
10517,3,R. Vitor Cordon,,38.70793750,-9.14257400,,,0,,,
10516,12,R. Vitor Cordon / R. Serpa Pinto,,38.70826250,-9.14197700,,,0,,,
10519,4,R. Vitor Cordon / R. Serpa Pinto,,38.70795950,-9.14141700,,,0,,,
10518,11,Lg. Academia Nacional Belas Artes,,38.70806950,-9.14046000,,,0,,,
1006,15,Restauradores,,38.71579860,-9.14201600,,,0,,,
8820,13,Buraca (B. Tacha),,38.74235450,-9.21152500,,,0,,,
3922,27,Lg. Vitorino Damásio,,38.70733050,-9.15446400,,,0,,,
3902,10,Santos,,38.70623250,-9.15597940,,,0,,,
3912,5,Santos,,38.70671950,-9.15587100,,,0,,,
10014,12,R. Santana à Lapa,,38.71083150,-9.16136700,,,0,,,
10015,21,R. S. Domingos à Lapa,,38.70892050,-9.16191700,,,0,,,
10016,16,R. S. Domingos à Lapa,,38.70970850,-9.16243500,,,0,,,
10010,14,R. S. João Mata,,38.70770150,-9.15966700,,,0,,,
10011,8,R. Buenos Aires,,38.71143700,-9.16079300,,,0,,,
10012,13,R. Buenos Aires,,38.71211750,-9.16035800,,,0,,,
10013,9,R. Santana à Lapa,,38.71005150,-9.16245800,,,0,,,
2016,5,Entrecampos - Av. EUA,,38.74871350,-9.14664900,,,0,,,
2006,5,Entrecampos Norte,,38.74930550,-9.14936760,,,0,,,
9810,27,Av. Inf. D. Henrique (Ponte Xabregas),,38.72439350,-9.11213500,,,0,,,
9820,31,Qta. Peixinhos,,38.72273950,-9.12146400,,,0,,,
10711,5,R. Conde Almoster / Tv. S. Domingos,,38.74341060,-9.18050500,,,0,,,
10710,11,Alto Moinhos (Metro),,38.74915340,-9.18005710,,,0,,,
10717,6,R. Sousa Loureiro,,38.74471850,-9.18382000,,,0,,,
10714,4,B. Furnas,,38.74122850,-9.17619400,,,0,,,
9604,43,Mosteiro Jerónimos,,38.69777950,-9.20443100,,,0,,,
9614,18,Av. Restelo (Estádio),,38.70052450,-9.20979100,,,0,,,
10719,7,Tv. S. Domingos Benfica,,38.74231750,-9.18189300,,,0,,,
3006,2,R. Carvalho Araújo,,38.74762440,-9.22152390,,,0,,,
10718,3,R. Francisco Gentil Martins,,38.74009150,-9.17399200,,,0,,,
3016,13,Buraca - Av. República,,38.74608350,-9.21226900,,,0,,,
50040,14,Pç. Espanha (Pq. Urbano),,38.73718100,-9.15783200,,,0,,,
50041,10,R. Beneficência,,38.73942290,-9.15351200,,,0,,,
50042,19,Av. José Malhoa (Policia Municipal),,38.73641550,-9.16095200,,,0,,,
50043,18,R. Ramalho Ortigão,,38.73599250,-9.15792000,,,0,,,
50045,33,R. Tito Morais,,38.78306460,-9.14760700,,,0,,,
50047,7,Esc. S. Gonçalo,,38.78382150,-9.14933800,,,0,,,
50048,34,Esc. S. Gonçalo,,38.78478750,-9.14949700,,,0,,,
50049,18,Av. Sérgio Vieira Mello,,38.78155360,-9.14824600,,,0,,,
6130,12,Campolide,,38.72676150,-9.16199300,,,0,,,
6120,9,Campolide (Av. Cons. Fernando Sousa),,38.72629400,-9.16120000,,,0,,,
6110,8,B. Campolide,,38.72850950,-9.16598600,,,0,,,
10212,20,R. Presidente Arriaga,,38.70461050,-9.16359200,,,0,,,
10210,21,Av. Infante Santo,,38.70476050,-9.16775700,,,0,,,
10211,23,R. Presidente Arriaga,,38.70447750,-9.16418300,,,0,,,
29367,1,Linda-a-Velha,,38.71583050,-9.23565100,,,0,,,
29368,33,Linda-a-Velha,,38.71602650,-9.23566400,,,0,,,
50242,2,Hosp. Luz,,38.75542560,-9.19237700,,,0,,,
50243,16,Qta. Barros,,38.75573550,-9.16859500,,,0,,,
50240,14,Estr. Alfragide (Buraca),,38.74172250,-9.20660300,,,0,,,
50241,10,Colégio Militar (Metro),,38.75272650,-9.18934800,,,0,,,
50246,1,Lavra - R. Câmara Pestana,,38.71865680,-9.14012620,,,0,,,
50247,1,Bica - Lg. Calhariz,,38.71076250,-9.14579800,,,0,,,
50244,2,Glória - S. Pedro Alcântara,,38.71421550,-9.14390200,,,0,,,
11612,12,Grafanil,,38.79311350,-9.15523500,,,0,,,
50245,2,Lavra - Lg. Anunciada,,38.71784340,-9.14177620,,,0,,,
11613,1,Galinheiras,,38.79207950,-9.15029600,,,0,,,
11610,42,Qta. Balsares,,38.79407950,-9.15199600,,,0,,,
50248,2,Bica - R. S. Paulo,,38.70854630,-9.14680200,,,0,,,
11611,26,Qta. Balsares,,38.79337950,-9.15313300,,,0,,,
11616,5,Qta. Balsares,,38.79313860,-9.15311200,,,0,,,
11614,11,Qta. Torrinha,,38.79060450,-9.15734300,,,0,,,
11618,10,Torrinha,,38.78777150,-9.15907200,,,0,,,
50141,25,R. Fernando Namora,,38.76013060,-9.17762600,,,0,,,
50140,8,Pólo Univ. Ajuda - Av. Univ. Técnica,,38.71175190,-9.19541290,,,0,,,
50143,15,R. Tomás Fonseca,,38.75612450,-9.17644400,,,0,,,
50142,22,R. Fernando Namora,,38.76005050,-9.17771100,,,0,,,
50145,19,R. Tomás Fonseca / R. A. A. Machado,,38.75575550,-9.17045100,,,0,,,
50144,18,R. Tomás Fonseca,,38.75596410,-9.17598780,,,0,,,
50147,24,Cç. Livramento,,38.70581250,-9.17174500,,,0,,,
50146,3,R. Nova S. Mamede,,38.71965150,-9.15113800,,,0,,,
11511,15,Esc. Pintor Almada Negreiros,,38.77712950,-9.14646300,,,0,,,
11510,18,Av. Carlos Paredes,,38.77441060,-9.15214520,,,0,,,
50149,6,R. Conceição,,38.70931350,-9.13817500,,,0,,,
11513,15,R. Helena Vaz Silva,,38.77310750,-9.15321600,,,0,,,
50148,18,R. Santana à Lapa / R. Possolo,,38.71279990,-9.16524420,,,0,,,
11512,9,R. Helena Vaz Silva,,38.77318420,-9.15294480,,,0,,,
6405,10,Pç. Londres,,38.74137950,-9.13744700,,,0,,,
11517,13,Av. David Mourão Ferreira,,38.77746760,-9.15202000,,,0,,,
10315,16,Pólo Universitário Ajuda,,38.71393650,-9.19697500,,,0,,,
10314,7,R. Cruzeiro,,38.71005950,-9.19495900,,,0,,,
8912,39,Olaias (Piscina),,38.73990560,-9.12406900,,,0,,,
10313,17,Pólo Universitário Ajuda,,38.71283050,-9.19588600,,,0,,,
8902,19,R. Frei Fortunato S. Boaventura,,38.73601250,-9.12293400,,,0,,,
10311,11,R. Armando Lucena,,38.71072910,-9.19641290,,,0,,,
10310,3,Palácio Nacional Ajuda,,38.70716450,-9.19909900,,,0,,,
50444,13,R. Luis Piçarra,,38.77589850,-9.15129600,,,0,,,
50445,12,R. Luis Piçarra,,38.77588760,-9.15083600,,,0,,,
4212,3,Algés (Jardim),,38.69954550,-9.23209600,,,0,,,
50446,2,Estação Alta Lisboa,,38.77485450,-9.14736500,,,0,,,
4202,2,Algés (Mercado),,38.70137710,-9.22705610,,,0,,,
50440,22,Qta. Lavadeiras,,38.78383150,-9.16419100,,,0,,,
50441,11,Av. David Mourão Ferreira (C. Social),,38.77726860,-9.15553570,,,0,,,
50442,14,Av. David Mourão Ferreira (C. Social),,38.77723960,-9.15573790,,,0,,,
50443,12,Av. David Mourão Ferreira,,38.77736150,-9.15232500,,,0,,,
7405,14,Av. D. Rodrigo Cunha,,38.75470650,-9.13411100,,,0,,,
50448,13,Estação Sacavém,,38.79569450,-9.10019300,,,0,,,
50449,14,Sacavém (Urb. Real Forte),,38.79416950,-9.10369400,,,0,,,
2130,2,Mercado Sta. Clara,,38.71566250,-9.12581600,,,0,,,
2110,14,Cais Lingueta (Museu Fado),,38.71113650,-9.12737080,,,0,,,
9902,14,R. S. Paulo (Bica),,38.70844560,-9.14704070,,,0,,,
50340,10,R. Chen He,,38.78875350,-9.09953400,,,0,,,
8016,32,Campo Ourique (Prazeres),,38.71439550,-9.17002100,,,0,,,
8006,12,R. 4 Infantaria,,38.72023150,-9.16544300,,,0,,,
50347,22,R. Escolas,,38.77436380,-9.11944590,,,0,,,
50346,1,ISEL,,38.75462350,-9.11370800,,,0,,,
50345,4,Esc. D. Dinis,,38.75195450,-9.11403600,,,0,,,
50344,11,Pç. D. António Ribeiro,,38.78018320,-9.15147170,,,0,,,
50349,20,Av. Dr. Alfredo Bensaúde,,38.77902350,-9.11735900,,,0,,,
50348,21,Mercado Encarnação,,38.77667960,-9.12004000,,,0,,,
50646,3,Cç. Lajes (Escola),,38.72165150,-9.11636490,,,0,,,
50644,31,R. Jaime Lopes Dias,,38.77886840,-9.16542330,,,0,,,
50645,2,R. Prof. Lindley Cintra,,38.77015980,-9.19284250,,,0,,,
9006,20,Olaias - Av. Afonso Costa,,38.73861230,-9.12733350,,,0,,,
50642,8,R. Formosinho Sanchez,,38.78048460,-9.16913580,,,0,,,
50643,7,R. Jaime Lopes Dias,,38.77910780,-9.16570220,,,0,,,
50640,1,Lumiar (Esc. Alto Lumiar),,38.77453850,-9.15538090,,,0,,,
50641,30,R. Formosinho Sanchez,,38.78021050,-9.16930640,,,0,,,
1405,7,B. Azul,,38.73333150,-9.15473900,,,0,,,
11210,47,Av. Frei Miguel Contreiras,,38.74613650,-9.13651800,,,0,,,
11211,2,Av. Frei Miguel Contreiras,,38.74580050,-9.13711600,,,0,,,
50649,11,R. Costa Pimenta (Centro Social),,38.71723650,-9.17346920,,,0,,,
10818,5,R. Carolina Michaelis Vasconcelos,,38.74449050,-9.19304100,,,0,,,
10819,1,Colégio Militar (Metro),,38.75267050,-9.18951200,,,0,,,
10814,20,Calhariz,,38.74894550,-9.19126900,,,0,,,
10815,18,Calhariz - R. Ten. Coronel Ribeiro Reis,,38.74633750,-9.18965200,,,0,,,
10816,22,Colégio Militar (Metro),,38.75200750,-9.18791500,,,0,,,
10817,16,R. Carolina Michaelis Vasconcelos,,38.74425650,-9.19429600,,,0,,,
10810,21,Estádio Luz,,38.75404650,-9.18603200,,,0,,,
4505,22,Sul e Sueste,,38.70827550,-9.13346900,,,0,,,
50545,17,R. Qta. Jacinto,,38.70719660,-9.17589400,,,0,,,
50544,13,Av. Defensores Chaves,,38.73879650,-9.14439100,,,0,,,
10813,17,Colégio Militar (Metro),,38.75288280,-9.18816040,,,0,,,
50547,37,Av. Ucrânia,,38.74773750,-9.11748700,,,0,,,
7202,7,Cç. Carriche / Estr. Desvio,,38.78213930,-9.16478650,,,0,,,
50546,4,Av. Ucrânia,,38.74721560,-9.11778900,,,0,,,
50541,5,R. Soeiro Pereira Gomes,,38.74513060,-9.15935900,,,0,,,
50540,4,R. S. Pereira Gomes (Mercado),,38.74280550,-9.15850800,,,0,,,
50543,7,R. Diogo Macedo (Escola),,38.74566950,-9.15589500,,,0,,,
11115,40,Lg. Leão,,38.73456850,-9.13732600,,,0,,,
50542,6,R. Alberto Sousa,,38.74604960,-9.15776500,,,0,,,
11114,8,Av. Manuel Maia,,38.73713550,-9.13637400,,,0,,,
11116,19,Lg. Leão,,38.73472650,-9.13721500,,,0,,,
11118,4,Arco Cego - Av. Miguel Bombarda,,38.73769850,-9.14283200,,,0,,,
5603,2,R. Madalena,,38.70988150,-9.13503300,,,0,,,
1202,6,Mq. Pombal - Av. Duque Loulé,,38.72556850,-9.14861500,,,0,,,
1212,28,Marquês Pombal,,38.72466150,-9.15085400,,,0,,,
11317,11,Esc. Padre António Vieira,,38.75775850,-9.13621100,,,0,,,
11316,13,Pote Água,,38.75911560,-9.13713800,,,0,,,
11315,14,Bombeiros Alvalade,,38.75679150,-9.13969000,,,0,,,
11314,18,Bombeiros Alvalade,,38.75634060,-9.13999300,,,0,,,
11312,29,LNEC,,38.75779030,-9.14074230,,,0,,,
11310,18,R. Murtas / Av. Brasil,,38.75598650,-9.14875400,,,0,,,
13573,4,Parque Nações Norte,,38.79347760,-9.09776500,,,0,,,
11319,12,Pote Água,,38.75943050,-9.13582700,,,0,,,
6603,4,R. Bernardim Ribeiro,,38.72502350,-9.14401300,,,0,,,
11318,14,R. Reinaldo Ferreira,,38.75756650,-9.13797800,,,0,,,
10919,5,Al. Padre Álvaro Proença,,38.74855250,-9.20147100,,,0,,,
10918,27,Al. Padre Álvaro Proença,,38.74889350,-9.20124500,,,0,,,
10915,1,Benfica - Al. Pe. Álvaro Proença,,38.74924850,-9.20272300,,,0,,,
10914,33,Av. Uruguai,,38.75149950,-9.19726400,,,0,,,
10917,28,Qta. Granja,,38.75446100,-9.19548000,,,0,,,
10916,3,Qta. Granja,,38.75470900,-9.19608200,,,0,,,
10911,13,Qta. Granja - Av. Uruguai,,38.75286860,-9.19681200,,,0,,,
10910,4,Estr. Arneiros,,38.75447850,-9.19781600,,,0,,,
10913,14,Av. Uruguai,,38.75143750,-9.19748800,,,0,,,
7505,16,Av. Alm. Gago Coutinho (Rot. Relógio),,38.76236760,-9.12944900,,,0,,,
10912,34,Qta. Granja - Av. Uruguai,,38.75322050,-9.19634200,,,0,,,
7515,10,Av. Brasil (Rot. Relógio),,38.76247850,-9.13036800,,,0,,,
2212,8,Av. Paulo VI,,38.74798150,-9.10780200,,,0,,,
2202,37,Fábrica Gás,,38.75100550,-9.09588900,,,0,,,
7603,41,Av. Berlim (Aeroporto),,38.76982550,-9.12659100,,,0,,,
15105,31,Odivelas (B. Dr. Lima Pimentel),,38.78665970,-9.18297970,,,0,,,
8110,15,Estrela - R. Domingos Sequeira,,38.71450650,-9.16210900,,,0,,,
15104,52,Av. D. Dinis,,38.78946450,-9.17719900,,,0,,,
15107,4,R. Bomb. Voluntário / Al. I. D. Henrique,,38.78881160,-9.17581500,,,0,,,
15106,3,R. Bombeiros Voluntários,,38.78699150,-9.17814500,,,0,,,
15101,1,Odivelas (B. Dr. Lima Pimentel),,38.78609650,-9.18320600,,,0,,,
15103,2,Av. D. Dinis (Bombeiros Odivelas),,38.78679200,-9.18048000,,,0,,,
15102,53,Av. D. Dinis (Bombeiros Odivelas),,38.78732050,-9.17992000,,,0,,,
9110,40,Sapadores,,38.72128350,-9.12919100,,,0,,,
9120,31,Tv. Sto. António,,38.71917460,-9.12797800,,,0,,,
9130,16,R. Graça,,38.71903350,-9.12983500,,,0,,,
1505,9,Pç. Espanha,,38.73810200,-9.15995400,,,0,,,
1603,32,Sete Rios,,38.74176120,-9.16760490,,,0,,,
5801,24,Hipódromo,,38.75761450,-9.16250000,,,0,,,
5811,2,Hosp. Pulido Valente,,38.76456350,-9.15699600,,,0,,,
5841,21,Campo Grande (Metro),,38.76043450,-9.15653900,,,0,,,
8435,24,C. Comercial Olivais,,38.76150750,-9.11398400,,,0,,,
8425,25,R. Cons. Emídio Navarro,,38.75659650,-9.11829300,,,0,,,
6811,7,Rato,,38.72028250,-9.15378700,,,0,,,
6801,13,Av. Álvares Cabral,,38.71748250,-9.15732500,,,0,,,
5703,27,Campo Grande - Av. Brasil,,38.75481050,-9.15209800,,,0,,,
9405,35,R. Maria Pia,,38.71259650,-9.17366200,,,0,,,
6605,5,R. Luciano Cordeiro,,38.72688150,-9.14568200,,,0,,,
9415,4,Alcântara - Av. Ceuta,,38.70725250,-9.17353100,,,0,,,
9425,22,Alcântara - Av. Ceuta,,38.70812550,-9.17385400,,,0,,,
3603,5,Lg. Broma,,38.74232750,-9.11694100,,,0,,,
3613,3,Av. Carlos Pinhão,,38.74166060,-9.11842900,,,0,,,
7821,2,Av. D. João II,,38.77155460,-9.09734100,,,0,,,
7801,13,R. Sarg. Armando Monteiro Ferreira,,38.77189850,-9.10986500,,,0,,,
7811,7,Pç. José Queirós,,38.77301450,-9.10509200,,,0,,,
6723,14,R. S. Bento / Cç. Estrela,,38.71096950,-9.15263600,,,0,,,
6713,10,Pç. Flores,,38.71482770,-9.15158460,,,0,,,
6703,31,Palácio S. Bento (Jardim),,38.71338750,-9.15315400,,,0,,,
7605,11,R. C (Aeroporto),,38.77412350,-9.12587300,,,0,,,
2320,4,Av. Inf. D. Henrique (Centieira),,38.75992650,-9.10366800,,,0,,,
2310,5,Rot. Cabo Ruivo,,38.75482760,-9.10318380,,,0,,,
24375,3,Esc. D. Dinis,,38.75213450,-9.11404300,,,0,,,
24376,3,Esc. D. Dinis,,38.75174950,-9.11358700,,,0,,,
24377,33,Esc. D. Dinis,,38.75204450,-9.11350100,,,0,,,
24370,30,ISEL,,38.75509150,-9.11354200,,,0,,,
24371,8,R. Dr. José Espirito Santo,,38.75300250,-9.10566800,,,0,,,
24372,25,R. Dr. José Espirito Santo,,38.75302760,-9.10551100,,,0,,,
7723,21,R. Cidade Benguela,,38.76578250,-9.11334700,,,0,,,
7703,21,Av. Berlim (Viveiros),,38.76891550,-9.11784100,,,0,,,
7713,20,Piscina Olivais,,38.77003150,-9.10899100,,,0,,,
24378,32,R. Eng. Ferreira Dias,,38.75218770,-9.11685750,,,0,,,
24379,23,R. Eng. Ferreira Dias,,38.75218550,-9.11652000,,,0,,,
8202,4,Alfândega (Terminal Cruzeiros),,38.70963910,-9.12901300,,,0,,,
1801,40,Saldanha,,38.73367250,-9.14463200,,,0,,,
1811,5,Av. Miguel Bombarda (ISCAL),,38.73715760,-9.14670300,,,0,,,
9202,7,Paço Rainha,,38.72338850,-9.13770000,,,0,,,
9212,2,Campo Santana,,38.72417150,-9.13987000,,,0,,,
1605,2,Esc. D. Pedro V,,38.74122050,-9.16324400,,,0,,,
1615,12,Estr. Benfica (Furnas),,38.74241550,-9.17240400,,,0,,,
2811,16,Estação Benfica,,38.74472050,-9.19912290,,,0,,,
2801,18,Estação Benfica - Av. Gomes Pereira,,38.74528250,-9.19794800,,,0,,,
1703,10,Picoas,,38.73140060,-9.14611400,,,0,,,
1713,39,Picoas,,38.73103550,-9.14632600,,,0,,,
5901,3,Av. Rainha D. Leonor,,38.76718560,-9.15791800,,,0,,,
5911,45,Ameixoeira - Estr. Desvio,,38.77882750,-9.16338800,,,0,,,
5921,6,R. Prof. M. Valadares,,38.77578300,-9.16007740,,,0,,,
5931,22,Ameixoeira,,38.78207960,-9.15874600,,,0,,,
5951,13,R. Fernando Lopes Graça,,38.77026250,-9.16909600,,,0,,,
3821,3,Corpo Santo,,38.70729880,-9.14195180,,,0,,,
3801,55,Cais Sodré,,38.70590050,-9.14311200,,,0,,,
3811,46,Cais Sodré,,38.70565960,-9.14312600,,,0,,,
5705,29,Campo Grande - Av. Brasil,,38.75562850,-9.15143700,,,0,,,
2713,11,Av. José Malhoa,,38.73772950,-9.16762900,,,0,,,
2703,16,R. C (B. Liberdade),,38.73513150,-9.17182900,,,0,,,
6901,42,Gomes Freire,,38.72557250,-9.14075200,,,0,,,
3605,21,Bela Vista (Centro Comercial),,38.74823260,-9.11871100,,,0,,,
6715,11,R. Palmeira,,38.71467750,-9.15000600,,,0,,,
9505,16,Hosp. Egas Moniz,,38.69859050,-9.18739600,,,0,,,
6705,32,R. S. Bento,,38.71544400,-9.15432500,,,0,,,
3703,10,Pç. Eduardo Mondlane,,38.74445750,-9.11322700,,,0,,,
3713,20,R. Salgueiro Maia,,38.74816550,-9.11294100,,,0,,,
7911,28,Moscavide (Metro),,38.77463550,-9.10091600,,,0,,,
6017,20,Av. Dr. José Salvado Sampaio,,38.78051950,-9.15302400,,,0,,,
9603,10,Mosteiro Jerónimos,,38.69734250,-9.20365100,,,0,,,
6007,38,Charneca,,38.78714650,-9.14211300,,,0,,,
9613,16,Av. Restelo (Estádio),,38.70036650,-9.20998300,,,0,,,
7725,20,R. Cidade Benguela (Mercado),,38.76547850,-9.11089000,,,0,,,
7705,26,Piscina Olivais,,38.76973870,-9.11170130,,,0,,,
7715,26,Av. Berlim,,38.76744250,-9.11003400,,,0,,,
7007,6,R. Cesário Verde,,38.72916550,-9.12988700,,,0,,,
8310,26,Xabregas - R. Manutenção,,38.72630650,-9.11047500,,,0,,,
8320,10,Xabregas,,38.72593570,-9.11353130,,,0,,,
1901,8,Campo Pequeno - Av. República,,38.74298050,-9.14674200,,,0,,,
8841,1,Alfragide,,38.73812950,-9.21283200,,,0,,,
8811,16,Buraca,,38.74386450,-9.20551500,,,0,,,
2715,8,Estação Campolide,,38.72995850,-9.16608900,,,0,,,
2705,11,B. Liberdade,,38.73333650,-9.16898900,,,0,,,
3901,17,Santos,,38.70616850,-9.15572800,,,0,,,
3911,25,Santos-o-Velho,,38.70652050,-9.15793500,,,0,,,
2017,28,Campo Grande,,38.75229850,-9.14957100,,,0,,,
2007,6,Av. Forças Armadas,,38.74804650,-9.15090500,,,0,,,
9801,11,Cç. Lajes,,38.72566150,-9.11889400,,,0,,,
9811,26,Av. Inf. D. Henrique (Tipografia),,38.72305260,-9.11304600,,,0,,,
9821,6,Qta. Peixinhos,,38.72353910,-9.12165400,,,0,,,
3705,11,Pç. Dr. Fernando Amado,,38.74655150,-9.11280500,,,0,,,
3715,15,Av. Paulo VI (Igreja),,38.74240550,-9.11274700,,,0,,,
8713,21,Cruz Oliveiras,,38.72552750,-9.19402700,,,0,,,
8703,12,Av. Tenente Martins,,38.72882050,-9.19051600,,,0,,,
9605,8,B. Terras Forno,,38.70235370,-9.20664560,,,0,,,
3007,27,Estação Damaia,,38.74833350,-9.21527400,,,0,,,
3017,8,Buraca - Av. República,,38.74596760,-9.21238000,,,0,,,
50050,2,Cç. Carrascal,,38.73438250,-9.11851200,,,0,,,
50051,22,Picheleira (Qta. Lavrado),,38.73269850,-9.12221100,,,0,,,
50052,15,Alfragide (NATO),,38.73720050,-9.21609900,,,0,,,
50053,16,Av. Almeida Garrett,,38.73836350,-9.21776200,,,0,,,
50054,9,Av. Almeida Garrett,,38.73825950,-9.21793500,,,0,,,
50055,7,Estr. Alfragide / R. Encosta,,38.73475650,-9.22136100,,,0,,,
50057,18,Estr. Alfragide / R. Encosta,,38.73487950,-9.22147400,,,0,,,
50058,8,Alfragide (Qta. Grande),,38.73576230,-9.21877810,,,0,,,
50059,32,Av. José Gomes Ferreira,,38.71507000,-9.23168000,,,0,,,
6127,19,R. Artilharia Um,,38.72590750,-9.15743500,,,0,,,
6117,8,Palácio Justiça,,38.73064450,-9.15700900,,,0,,,
6107,6,Cç. Mestres,,38.72651450,-9.16503100,,,0,,,
9713,15,Av. Restelo,,38.69961250,-9.21366000,,,0,,,
50252,28,Alfragide (DGA),,38.73767150,-9.20802800,,,0,,,
50253,3,Alfragide (DGA),,38.73778160,-9.20849000,,,0,,,
50251,27,R. Galegas,,38.73589620,-9.20919050,,,0,,,
50254,4,R. Galegas,,38.73597320,-9.20944850,,,0,,,
50151,10,Estação Sto. Amaro,,38.70241950,-9.18032000,,,0,,,
50150,11,Cç. S. Vicente,,38.71350350,-9.12872000,,,0,,,
50155,1,Lumiar,,38.77031750,-9.16122900,,,0,,,
50154,36,Av. Maria Helena Vieira Silva,,38.76687660,-9.15103100,,,0,,,
50157,16,Av. Maria Helena Vieira Silva,,38.76686350,-9.15167900,,,0,,,
50156,19,Pç. D. António Ribeiro,,38.78048860,-9.15151600,,,0,,,
50159,10,Lisboa Clube Ténis,,38.73054450,-9.20375200,,,0,,,
50158,2,Campo Ourique (Prazeres),,38.71478530,-9.16929230,,,0,,,
6402,9,Av. João XXI,,38.74242950,-9.14045500,,,0,,,
8911,17,R. Eng. Santos Simões,,38.73584460,-9.12562700,,,0,,,
8901,1,Picheleira (Qta. Lavrado),,38.73265250,-9.12147400,,,0,,,
4213,40,Algés (Mercado),,38.70086390,-9.22796500,,,0,,,
50457,18,R. Luis Barbosa,,38.73568650,-9.11449200,,,0,,,
4223,9,Algés (Jardim),,38.69942150,-9.23209500,,,0,,,
50450,2,Pç. República,,38.79655200,-9.10407400,,,0,,,
50451,3,Estação Sacavém,,38.79608550,-9.09962200,,,0,,,
7402,28,Av. D. Rodrigo Cunha / R. Ed. Noronha,,38.75457850,-9.13161600,,,0,,,
50458,24,Areeiro,,38.74237050,-9.13450800,,,0,,,
50459,10,Trav. Sargento Abílio,,38.74240850,-9.20076400,,,0,,,
8715,14,Tribunal Monsanto,,38.73290950,-9.19222800,,,0,,,
8705,13,Monsanto,,38.73276050,-9.18962300,,,0,,,
2127,25,Estação Sta. Apolónia (Mercadorias),,38.71643580,-9.11929060,,,0,,,
2107,9,R. Washington,,38.71783750,-9.12078500,,,0,,,
9901,5,R. S. Paulo (Bica),,38.70850150,-9.14668400,,,0,,,
50353,14,Av. Pádua,,38.76287750,-9.10705800,,,0,,,
50350,13,Vale Castanheira,,38.78058550,-9.14819700,,,0,,,
8017,1,Campo Ourique (Prazeres),,38.71427950,-9.16951500,,,0,,,
50357,1,Alcântara,,38.70687950,-9.17314100,,,0,,,
8007,17,R. Freitas Gazul,,38.71714250,-9.16982100,,,0,,,
50356,31,Alto Sto. Amaro,,38.70251550,-9.18775400,,,0,,,
8027,6,R. Campo Ourique,,38.72067350,-9.16400400,,,0,,,
50355,11,Espaço Monsanto,,38.74067650,-9.18655100,,,0,,,
50354,16,Cais Olival - Al. Oceanos,,38.77592150,-9.09475500,,,0,,,
50359,16,Av. Cidade Praga (Lispolis),,38.76566560,-9.18228700,,,0,,,
50358,29,Qta. Alcoutins,,38.77949300,-9.17224350,,,0,,,
9705,25,R. D. Constantino Bragança,,38.70605550,-9.21638100,,,0,,,
50657,29,Av. Almirante Reis / R. Febo Moniz,,38.72634680,-9.13547300,,,0,,,
50654,22,Az. Vale Fundão,,38.74472070,-9.10434420,,,0,,,
50655,21,Centro Saúde Marvila,,38.74202050,-9.10968980,,,0,,,
9007,5,Casal Vistoso,,38.74153450,-9.12840700,,,0,,,
50652,12,Az. Vale Fundão,,38.74484660,-9.10434590,,,0,,,
50653,1,ISEL,,38.75570600,-9.11377120,,,0,,,
50650,5,R. Afonso Botelho,,38.74881980,-9.16941220,,,0,,,
50651,6,Laranjeiras (Loja Cidadão),,38.75019100,-9.17185070,,,0,,,
1402,22,Igreja S. Sebastião Pedreira,,38.73159360,-9.15177800,,,0,,,
50658,10,R. Guilherme Anjos,,38.71967580,-9.17178850,,,0,,,
1412,21,Av. Marquês Tomar,,38.73630560,-9.14952230,,,0,,,
4504,1,Campo Cebolas,,38.70879950,-9.13325000,,,0,,,
50554,6,Pç. José Fontana,,38.73063650,-9.14435000,,,0,,,
7203,46,Estr. Desvio / R. Prof. J. Pinto Correia,,38.78121550,-9.16296000,,,0,,,
50551,8,Alameda D. A. Henriques,,38.73667150,-9.13245500,,,0,,,
50550,59,Ajuda (Associação Desportiva),,38.71142830,-9.20406520,,,0,,,
50553,4,R. Ponta Delgada,,38.73280560,-9.13863600,,,0,,,
50552,3,Lg. Leão,,38.73491250,-9.13696700,,,0,,,
50559,20,R. Cruz / R. Feliciano Sousa,,38.70816300,-9.17410710,,,0,,,
2402,41,Av. Mediterrâneo,,38.76250150,-9.09810300,,,0,,,
5808,24,Campo Grande (Metro),,38.76133140,-9.15750990,,,0,,,
5818,18,Inst. Ricardo Jorge,,38.76685450,-9.16404800,,,0,,,
5838,35,Alto Lumiar (Parque Europa),,38.76644760,-9.15274300,,,0,,,
5504,6,Pç. Comércio,,38.70794750,-9.13859600,,,0,,,
6818,12,R. S. Bento / R. Arco,,38.71808250,-9.15551100,,,0,,,
6808,5,Rato,,38.71974130,-9.15412900,,,0,,,
6504,21,Jardim Constantino,,38.73081760,-9.13685400,,,0,,,
1203,26,Marquês Pombal,,38.72587450,-9.14923900,,,0,,,
1213,1,Marquês Pombal,,38.72609400,-9.15046830,,,0,,,
1223,8,R. Joaquim António Aguiar,,38.72510250,-9.15530100,,,0,,,
4303,4,Igreja Cruz Quebrada,,38.70100450,-9.24969700,,,0,,,
7808,16,Estação Oriente (Interface),,38.76798750,-9.10000400,,,0,,,
7504,28,Av. Mar. Gomes Costa (Qta. Teresinhas),,38.76162350,-9.12181500,,,0,,,
7514,29,Av. Alm. Gago Coutinho (Rot. Relógio),,38.76210650,-9.12979700,,,0,,,
2213,38,Estação Braço Prata,,38.74578450,-9.10471900,,,0,,,
2203,17,Matinha,,38.74812450,-9.09695200,,,0,,,
8107,4,R. Domingos Sequeira,,38.71495950,-9.16303600,,,0,,,
9107,14,Av. General Roçadas,,38.72488550,-9.12848300,,,0,,,
9117,7,R. Cardal Graça,,38.72020150,-9.12728800,,,0,,,
9127,6,R. Angelina Vidal,,38.72230750,-9.13106400,,,0,,,
1504,11,Pç. Espanha / Av. Berna,,38.73778550,-9.15554400,,,0,,,
1514,15,Av. Calouste Gulbenkian (Viaduto),,38.73618160,-9.16063900,,,0,,,
5806,2,Campo Grande Norte,,38.75762750,-9.15527900,,,0,,,
5816,19,Av. Rainha D. Amélia,,38.76659750,-9.15976500,,,0,,,
5826,17,Campo Grande (Metro),,38.76125030,-9.15719460,,,0,,,
5836,18,R. M. Marques / R. Agostinho Neto,,38.76457570,-9.15389580,,,0,,,
2808,22,R. Garridas,,38.74572750,-9.20047100,,,0,,,
8442,8,R. Chibuto,,38.76092450,-9.11032900,,,0,,,
8402,17,Av. Cidade L. Marques S,,38.76269250,-9.11973500,,,0,,,
6816,9,R. Custódio Vieira,,38.72046750,-9.15915200,,,0,,,
6806,10,R. Braamcamp,,38.72223350,-9.15198300,,,0,,,
3818,33,R. S. Paulo,,38.70777650,-9.14458700,,,0,,,
5702,10,Cidade Universitária,,38.75284450,-9.15591700,,,0,,,
5712,26,Campo Grande - Av. Brasil,,38.75510750,-9.15042200,,,0,,,
9402,21,Alcântara,,38.70696750,-9.17298800,,,0,,,
6606,30,R. Luciano Cordeiro,,38.72673350,-9.14576200,,,0,,,
9412,21,Qta. Cabrinha - Av. Ceuta,,38.71241150,-9.17545900,,,0,,,
9422,7,R. Possidónio Silva,,38.71049050,-9.17106000,,,0,,,
7806,8,Olivais Velho - Av. Inf. D. Henrique,,38.77036150,-9.10479400,,,0,,,
7816,1,Estação Oriente (Interface),,38.76775650,-9.10002700,,,0,,,
6722,7,R. S. Bento / Cç. Estrela,,38.71148050,-9.15318900,,,0,,,
6712,19,Palácio S. Bento,,38.71226000,-9.15279210,,,0,,,
6702,15,Assembleia República,,38.71117750,-9.15370500,,,0,,,
7606,16,R. C (Aeroporto),,38.77451050,-9.12614600,,,0,,,
2313,37,Av. Inf. D. Henrique / Av. Pádua,,38.76367150,-9.10366600,,,0,,,
7722,23,R. Cidade Benguela,,38.76594160,-9.11301600,,,0,,,
7702,15,Av. Cidade L. Marques N,,38.76690050,-9.11988300,,,0,,,
7712,16,Av. Berlim / Tv. Courelas,,38.76781050,-9.10606500,,,0,,,
8203,16,Chafariz d'El Rei,,38.70963760,-9.12947500,,,0,,,
3303,6,R. Beneficência,,38.74314060,-9.15669700,,,0,,,
1806,22,Av. Duque D'Ávila,,38.73501050,-9.14628600,,,0,,,
9203,2,Campo Mártires Pátria,,38.72241350,-9.13983800,,,0,,,
9213,38,Campo Mártires Pátria,,38.72167260,-9.13905000,,,0,,,
1616,14,Estr. Benfica (Furnas),,38.74257950,-9.17265800,,,0,,,
2806,21,Estação Benfica,,38.74504350,-9.19984500,,,0,,,
1702,7,Av. Fontes P. Melo,,38.72860650,-9.14814200,,,0,,,
1712,9,Pç. José Fontana,,38.72987850,-9.14349500,,,0,,,
5910,10,Cç. Carriche / Estr. Militar,,38.77836350,-9.16429400,,,0,,,
5920,24,R. Prof. M. Valadares,,38.77565380,-9.16009300,,,0,,,
5930,26,Castanheira Moura,,38.77445890,-9.15689990,,,0,,,
5940,12,Lumiar,,38.77307950,-9.16142800,,,0,,,
5950,5,Lumiar (Estr. Torre),,38.77394150,-9.16148300,,,0,,,
4004,6,Alcântara - Av. 24 Julho,,38.70430160,-9.17394700,,,0,,,
3826,45,R. Alecrim,,38.70806060,-9.14340200,,,0,,,
8848,11,Estr. Outeiro,,38.73233860,-9.20317600,,,0,,,
8818,12,Estr. Alfragide,,38.74083850,-9.20889600,,,0,,,
8808,31,B. Boavista,,38.73646950,-9.20591600,,,0,,,
8838,16,Estádio Pina Manique,,38.73648950,-9.20166900,,,0,,,
8828,11,B. Boavista,,38.73616050,-9.20545600,,,0,,,
5704,3,Campo Grande - Av. Brasil,,38.75391550,-9.15256100,,,0,,,
8514,35,R. D. João V,,38.72070850,-9.16072100,,,0,,,
2712,21,Estação Sete Rios,,38.73891330,-9.16845660,,,0,,,
2702,30,Estação Campolide,,38.73123950,-9.16846800,,,0,,,
3606,10,Bela Vista (Centro Comercial),,38.74842150,-9.11848100,,,0,,,
9808,19,Igreja Madre Deus (Museu Azulejo),,38.72447450,-9.11382500,,,0,,,
6724,6,R. Poiais S. Bento,,38.71076650,-9.15186500,,,0,,,
6714,7,Pç. Flores,,38.71490450,-9.15155800,,,0,,,
9504,27,R. Junqueira (Centro Congressos),,38.69978550,-9.18434600,,,0,,,
6704,14,Palácio S. Bento (Jardim),,38.71348150,-9.15332400,,,0,,,
3702,18,R. Dinah Silveira Queiroz,,38.74064660,-9.11205400,,,0,,,
3712,23,B. Salgadas,,38.73843350,-9.11335400,,,0,,,
7910,12,Moscavide (Metro),,38.77471830,-9.10249290,,,0,,,
6024,6,B. Sete Céus,,38.78589650,-9.14994600,,,0,,,
6014,17,Igreja Charneca,,38.78362150,-9.14255300,,,0,,,
7724,24,R. Cidade Benguela (Mercado),,38.76518550,-9.11091400,,,0,,,
7704,25,Av. Berlim (Viveiros),,38.76908160,-9.11731500,,,0,,,
7714,11,Piscina Olivais,,38.76914050,-9.10989500,,,0,,,
7004,5,Pç. Paiva Couceiro,,38.73119950,-9.12796000,,,0,,,
7014,28,Pç. Paiva Couceiro,,38.73054350,-9.12748400,,,0,,,
8313,30,Av. Inf. D. Henrique (Beato ID),,38.73300350,-9.10433600,,,0,,,
8303,11,Xabregas,,38.72743650,-9.11028900,,,0,,,
9303,33,R. Correia Teles,,38.71889050,-9.17134500,,,0,,,
1704,6,Picoas,,38.73143050,-9.14632800,,,0,,,
1714,35,Picoas,,38.73107450,-9.14656900,,,0,,,
2910,11,B. Sta. Cruz,,38.74783250,-9.20737600,,,0,,,
4002,13,Alcântara Mar,,38.70294750,-9.17341700,,,0,,,
1004,10,Restauradores,,38.71562850,-9.14191400,,,0,,,
8846,12,B. Boavista - Estr. Outeiro,,38.73479350,-9.20193800,,,0,,,
8816,28,R. Venezuela,,38.74525650,-9.20296800,,,0,,,
8836,15,Estr. Buraca,,38.74161650,-9.20289100,,,0,,,
8826,13,Estádio Pina Manique,,38.73562200,-9.20303300,,,0,,,
2714,17,Estação Campolide,,38.72998950,-9.16824000,,,0,,,
2704,2,Estação Campolide,,38.73084050,-9.16860100,,,0,,,
4106,33,Cç. Ajuda / R. Gen. João Almeida,,38.70120150,-9.19985300,,,0,,,
3910,18,Santos-o-Velho,,38.70642950,-9.15862900,,,0,,,
8606,6,Cç. Sete Moinhos,,38.72619650,-9.17042000,,,0,,,
2004,45,Entrecampos,,38.74741850,-9.14844100,,,0,,,
9806,20,R. Madre Deus,,38.72341650,-9.11529900,,,0,,,
9816,2,R. Madre Deus,,38.72263550,-9.11565900,,,0,,,
3714,13,R. Salgueiro Maia,,38.74803750,-9.11294500,,,0,,,
8712,9,Estr. Oliveiras Baixo (Bombeiros),,38.72625250,-9.19622000,,,0,,,
8702,11,Cruz Oliveiras,,38.72533860,-9.19407300,,,0,,,
6022,8,R. Tito Morais,,38.78252950,-9.14741300,,,0,,,
9606,45,B. Terras Forno,,38.70182810,-9.20635230,,,0,,,
6002,5,R. João Amaral,,38.78757750,-9.14837520,,,0,,,
3004,1,Damaia Cima,,38.74674650,-9.22020700,,,0,,,
3014,28,Pç. Águas Livres,,38.74708090,-9.21645550,,,0,,,
6126,16,Av. Calouste Gulbenkian,,38.73225450,-9.16487500,,,0,,,
6116,28,R. Marquês Fronteira,,38.72952850,-9.15834800,,,0,,,
6106,27,Campolide,,38.72765050,-9.16071500,,,0,,,
9712,6,Av. D. Vasco Gama,,38.70096850,-9.21633600,,,0,,,
7002,16,R. Barão Sabrosa,,38.73534750,-9.12885900,,,0,,,
7012,8,R. Morais Soares (Cemitério),,38.73026050,-9.12492800,,,0,,,
7106,13,Conde Barão,,38.70861750,-9.15175800,,,0,,,
1002,33,Restauradores,,38.71543450,-9.14190000,,,0,,,
6403,4,Pç. Londres,,38.74059050,-9.13755200,,,0,,,
8910,4,Rot. Olaias,,38.73923550,-9.12624100,,,0,,,
2022,43,Estação Entrecampos,,38.74592450,-9.14747800,,,0,,,
2012,22,R. Afonso Lopes Vieira,,38.74987850,-9.14735000,,,0,,,
2002,4,Entrecampos,,38.74760150,-9.14847400,,,0,,,
4204,12,R. D. Jerónimo Osório,,38.69936050,-9.22493600,,,0,,,
4224,3,R. Latino Coelho,,38.70316850,-9.22711800,,,0,,,
7403,15,Av. D. Rodrigo Cunha / R. Ed. Noronha,,38.75439850,-9.13156700,,,0,,,
7413,31,Av. Gago Coutinho / Av. D. Rodrigo Cunha,,38.75379750,-9.13061500,,,0,,,
8714,21,Cruz Oliveiras,,38.72396950,-9.19362100,,,0,,,
8704,19,Av. Tenente Martins,,38.72868950,-9.19076200,,,0,,,
2126,34,R. Vale Sto. António,,38.71787650,-9.12291400,,,0,,,
2116,11,Campo Sta. Clara,,38.71507350,-9.12623100,,,0,,,
2106,45,R. Vale Sto. António,,38.71804150,-9.12218000,,,0,,,
3022,25,Estação Damaia,,38.74764150,-9.21500100,,,0,,,
3002,44,R. Bartolomeu Dias,,38.74804050,-9.21707700,,,0,,,
3012,29,Damaia - Av. D. João V,,38.74548250,-9.21806200,,,0,,,
8014,3,R. Sampaio Bruno,,38.71896260,-9.16955700,,,0,,,
9714,5,Av. Restelo,,38.69982860,-9.21432300,,,0,,,
9004,14,Pç. Bernardo Santareno,,38.74451000,-9.12825000,,,0,,,
1403,4,S. Sebastião,,38.73459250,-9.15400200,,,0,,,
1413,6,S. Sebastião,,38.73484750,-9.15265700,,,0,,,
7204,6,Sr. Roubado,,38.78579650,-9.16991300,,,0,,,
7214,9,Estr. Desvio / R. Prof. J. Pinto Correia,,38.78200720,-9.16297150,,,0,,,
2403,12,Oceanário Lisboa,,38.76108650,-9.09643600,,,0,,,
5809,1,Campo Grande (Metro),,38.75937950,-9.15754000,,,0,,,
5829,1,Campo Grande (Metro),,38.76048150,-9.15625700,,,0,,,
5839,32,R. Agostinho Neto,,38.76176050,-9.15383100,,,0,,,
6809,35,R. Braamcamp,,38.72212650,-9.15179700,,,0,,,
1214,9,Mq. Pombal - R. Braamcamp,,38.72389600,-9.15097900,,,0,,,
1224,27,R. Joaquim António Aguiar,,38.72489950,-9.15484300,,,0,,,
4302,8,Igreja Cruz Quebrada,,38.70098290,-9.24945560,,,0,,,
7809,12,Qta. Conde Arcos,,38.77053550,-9.10866400,,,0,,,
8012,2,Esc. Manuel Maia,,38.71711250,-9.16949400,,,0,,,
8002,17,R. Saraiva Carvalho,,38.71545850,-9.16452800,,,0,,,
2204,36,Matinha,,38.74776550,-9.09684200,,,0,,,
9002,16,Alto Pina,,38.73750260,-9.12744700,,,0,,,
402,4,Alameda D. A. Henriques,,38.73694050,-9.13399000,,,0,,,
404,36,Pç. João Rio,,38.74051150,-9.13363300,,,0,,,
407,2,Av. Guerra Junqueiro,,38.73751050,-9.13476000,,,0,,,
406,25,Av. Manuel Maia,,38.73643950,-9.13593400,,,0,,,
409,1,Alameda D. A. Henriques,,38.73659250,-9.13324500,,,0,,,
408,22,Alameda D. A. Henriques,,38.73601750,-9.13407300,,,0,,,
50021,10,Av. Nações Unidas,,38.76461950,-9.17705300,,,0,,,
50022,13,Av. Nações Unidas,,38.76407750,-9.17660900,,,0,,,
9116,43,R. Mato Grosso,,38.71952150,-9.12286000,,,0,,,
50023,8,Alto Faia Sul,,38.76523020,-9.17161160,,,0,,,
50024,18,Alto Faia Sul,,38.76523850,-9.17180300,,,0,,,
9126,18,R. Angelina Vidal,,38.72284750,-9.13131500,,,0,,,
50025,9,R. Prof. Prado Coelho,,38.76700450,-9.17066600,,,0,,,
50026,17,R. Prof. Prado Coelho,,38.76694350,-9.17097800,,,0,,,
50027,10,R. F. George / R. Alexandre Cabral,,38.76799150,-9.16978200,,,0,,,
1809,38,Av. República,,38.73852060,-9.14587100,,,0,,,
50028,16,R. F. George / R. Alexandre Cabral,,38.76809450,-9.16935900,,,0,,,
50029,15,Alto Faia,,38.76764750,-9.16857700,,,0,,,
501,27,R. Morais Soares,,38.73273250,-9.13040600,,,0,,,
502,6,R. Morais Soares,,38.73265050,-9.13055300,,,0,,,
503,17,Pç. Chile,,38.73325950,-9.13247600,,,0,,,
504,3,Pç. Chile,,38.73322350,-9.13279400,,,0,,,
505,7,Pç. Chile / Av. Almirante Reis,,38.73256750,-9.13424600,,,0,,,
506,38,Pç. Chile / Av. Almirante Reis,,38.73246350,-9.13439900,,,0,,,
12410,1,Restelo - Av. Descobertas,,38.70916300,-9.21429810,,,0,,,
507,38,Pç. Chile,,38.73442850,-9.13507700,,,0,,,
508,14,R. Morais Soares,,38.73243950,-9.13084400,,,0,,,
509,28,Pç. Chile,,38.73334150,-9.13278900,,,0,,,
12415,20,Restelo (Torres),,38.71192190,-9.21170210,,,0,,,
7302,6,Av. Estados Unidos América,,38.74864550,-9.13204700,,,0,,,
5807,20,Campo Grande (Metro),,38.76094650,-9.15712900,,,0,,,
5827,21,Campo Grande (Metro),,38.76157290,-9.15755300,,,0,,,
5837,34,R. Amilcar Cabral,,38.76482760,-9.15282400,,,0,,,
2809,19,B. Calhariz Benfica,,38.74311950,-9.19826800,,,0,,,
603,18,Pç. Novas Nações,,38.72634450,-9.13270000,,,0,,,
601,19,R. Forno Tijolo,,38.72390450,-9.13203100,,,0,,,
5909,44,R. Alexandre Ferreira,,38.77638050,-9.16274100,,,0,,,
5919,23,Estr. Lumiar,,38.77371900,-9.16995500,,,0,,,
607,5,Av. Almirante Reis / R. Angola,,38.72525250,-9.13495400,,,0,,,
606,8,R. José Estêvão,,38.72726960,-9.13794300,,,0,,,
605,19,Av. Almirante Reis / R. Febo Moniz,,38.72642550,-9.13557000,,,0,,,
5949,21,Paço Lumiar,,38.77116550,-9.17372400,,,0,,,
8443,22,R. Cidade Novo Redondo,,38.76493750,-9.11605600,,,0,,,
609,6,Av. Almirante Reis / R. Marques Silva,,38.72906160,-9.13456700,,,0,,,
8413,25,R. Cidade Bissau (Metro),,38.76047450,-9.11199500,,,0,,,
8403,32,Olivais Sul,,38.76427450,-9.11879800,,,0,,,
608,40,Av. Almirante Reis / R. Angola,,38.72557550,-9.13508800,,,0,,,
8433,23,Olivais (Centro Cívico),,38.76216650,-9.11661000,,,0,,,
50220,1,Sta. Justa - R. Ouro,,38.71212830,-9.13923140,,,0,,,
8423,9,Cemitério Olivais,,38.76235650,-9.10954400,,,0,,,
50221,35,Sul e Sueste,,38.70719000,-9.13344930,,,0,,,
6817,33,R. S. Bento / R. Arco,,38.71736050,-9.15514800,,,0,,,
6807,38,Rato,,38.71991250,-9.15469100,,,0,,,
3819,4,R. S. Paulo,,38.70772050,-9.14414400,,,0,,,
50228,10,Vale Formoso Cima,,38.74978550,-9.10308600,,,0,,,
50229,27,Av. Dr. Arlindo Vicente,,38.75289750,-9.12626900,,,0,,,
702,41,Igreja Anjos,,38.72194450,-9.13545800,,,0,,,
701,4,Igreja Anjos,,38.72214950,-9.13525900,,,0,,,
706,21,R. Maria Andrade,,38.72355760,-9.13446700,,,0,,,
707,15,R. Maria Andrade,,38.72343050,-9.13383000,,,0,,,
6909,40,Gomes Freire,,38.72620250,-9.14072300,,,0,,,
704,22,Igreja Anjos,,38.72211850,-9.13544100,,,0,,,
705,14,Igreja Anjos,,38.72202350,-9.13527300,,,0,,,
12613,53,Portela - Av. Descobrimentos,,38.78193950,-9.11398900,,,0,,,
12610,52,C. Comercial Portela,,38.78380650,-9.11250000,,,0,,,
12611,1,Portela - R. Mouzinho Albuquerque,,38.78548950,-9.11139000,,,0,,,
9403,37,Tv. Horta Navia,,38.70958350,-9.17198500,,,0,,,
708,20,R. Maria,,38.72381460,-9.13324700,,,0,,,
50121,2,Portela - R. Mouzinho Albuquerque,,38.78547860,-9.11149300,,,0,,,
709,16,R. Maria Fonte,,38.72311250,-9.13199900,,,0,,,
12617,50,Portela - R. Escritores,,38.78243750,-9.10837600,,,0,,,
50120,19,Qta. Ourives,,38.73534450,-9.11544100,,,0,,,
50123,12,Cais Olival,,38.77603700,-9.09515190,,,0,,,
12615,2,C. Comercial Portela,,38.78101050,-9.11182700,,,0,,,
50122,4,Cais Olival,,38.77613760,-9.09496600,,,0,,,
1302,23,Av. António Augusto Aguiar,,38.72898150,-9.14956600,,,0,,,
